     2.11           OBSERVATION DATA    M (MIXED)           RINEX VERSION / TYPE
teqc  2013Mar15                         20170203 13:24:25UTCPGM / RUN BY / DATE
ONSA                                                        MARKER NAME
10402M004                                                   MARKER NUMBER
SWEPOS              LMV                                     OBSERVER / AGENCY
AG72YY6YV40         JPS E_GGD           2.6.1 Jan,10,2008   REC # / TYPE / VERS
  3370658.8318   711876.9387  5349786.7450                  APPROX POSITION XYZ
        0.9950        0.0000        0.0000                  ANTENNA: DELTA H/E/N
     1     1                                                WAVELENGTH FACT L1/2
     7    C1    L1    L2    P1    P2    S1    S2            # / TYPES OF OBSERV
    30.0000                                                 INTERVAL
    16                                                      LEAP SECONDS
020                 AOAD/M_B        OSOD                    ANT # / TYPE
Linux2.6.32-279.el6.x86_64|x86_64|gcc|Win64-MinGW64|=       COMMENT
teqc  2013Mar15                         20170203 13:16:18UTCCOMMENT
teqc  2010Oct21                         20130131 03:49:58UTCCOMMENT
MSXP|IAx86-PII|bcc32 5.0|MSWin95->XP|486/DX+                COMMENT
teqc  2010Oct21                         20130130 01:00:06UTCCOMMENT
Forced Modulo Decimation to 30 seconds                      COMMENT
IMoS GFileSrv 3.61  Lantmäteriet        29.01.2013          COMMENT
teqc edited: all GLONASS satellites excluded                COMMENT
  2013     1    30     0     0    0.0000000     GPS         TIME OF FIRST OBS
                                                            END OF HEADER
 13  1 30  0  0  0.0000000  0  8G25G02G12G29G04G24G31G14
  20228233.393 8 106300112.188 8  82831275.50346  20228233.026 6  20228237.834 6
        53.000          44.000
  22354588.314 8 117474175.421 8  91538339.44945  22354587.714 5  22354587.905 5
        50.000          36.000
  20824196.765 8 109431928.317 8  85271654.59546  20824196.477 6  20824197.966 6
        52.000          43.000
  22090894.440 7 116088451.734 7  90458548.32345  22090893.942 5  22090896.202 5
        49.000          36.000
  23025040.753 6 120997428.785 6  94283726.84043  23025040.909 3  23025043.276 3
        44.000          26.000
  24329837.388 5 127854145.943 5  99626622.80241  24329837.506 1  24329843.404 1
        36.000          18.000
  23058909.104 7 121175400.832 7  94422391.89444  23058909.342 4  23058910.037 4
        46.000          31.000
  22928336.589 6 120489228.409 6  93887719.92943  22928335.933 3  22928338.790 3
        44.000          27.000
 13  1 30  0  0 30.0000000  0  8G25G02G12G29G04G24G31G14
  20224849.555 8 106282329.286 8  82817418.69347  20224849.171 6  20224853.854 7
        53.000          45.000
  22348158.293 7 117440387.447 7  91512011.16545  22348158.001 5  22348158.491 5
        49.000          36.000
  20834588.150 8 109486534.868 8  85314205.14846  20834587.926 6  20834589.225 6
        52.000          43.000
  22073375.507 7 115996395.255 7  90386816.01545  22073375.698 5  22073378.257 5
        48.000          36.000
  23034819.801 7 121048814.358 7  94323767.53243  23034819.497 3  23034822.520 3
        45.000          26.000
  24351744.040 5 127969266.263 5  99716326.88541  24351744.626 1  24351750.634 1
        37.000          19.000
  23042120.478 7 121087176.060 7  94353645.32344  23042120.408 4  23042122.044 4
        45.000          32.000
  22942569.656 6 120564026.301 6  93946003.97543  22942569.482 3  22942571.998 3
        44.000          27.000
 13  1 30  0  1  0.0000000  0  8G25G02G12G29G04G24G31G14
  20221551.116 8 106264996.143 8  82803912.34447  20221550.803 7  20221555.503 7
        53.000          45.000
  22341829.354 8 117407124.337 8  91486091.86745  22341828.351 5  22341828.906 5
        50.000          36.000
  20845049.658 8 109541513.298 8  85357045.48246  20845049.821 6  20845051.326 6
        52.000          43.000
  22055919.616 7 115904662.831 7  90315336.22345  22055919.836 5  22055922.147 5
        48.000          36.000
  23044708.488 7 121100776.155 7  94364257.22743  23044707.997 3  23044710.192 3
        45.000          27.000
  24373670.329 5 128084492.691 5  99806113.66241  24373670.784 1  24373677.647 1
        35.000          18.000
  23025386.585 7 120999241.447 7  94285124.83644  23025387.167 4  23025388.111 4
        46.000          31.000
  22956882.083 7 120639237.167 7  94004609.82843  22956882.089 3  22956884.558 3
        45.000          27.000
 13  1 30  0  1 30.0000000  0  8G25G02G12G29G04G24G31G14
  20218338.067 8 106248113.214 8  82790756.81846  20218337.879 6  20218342.638 6
        54.000          44.000
  22335599.129 7 117374387.863 7  91460582.93945  22335598.332 5  22335599.478 5
        49.000          36.000
  20855582.173 8 109596862.108 8  85400174.41946  20855582.177 6  20855583.960 6
        53.000          43.000
  22038525.706 7 115813255.834 7  90244110.01545  22038525.381 5  22038527.897 5
        49.000          36.000
  23054704.772 7 121153312.408 7  94405194.57443  23054705.246 3  23054707.400 3
        45.000          26.000
  24395619.691 5 128199823.074 5  99895981.48541  24395618.858 1  24395624.217 1
        38.000          19.000
  23008709.213 7 120911599.478 7  94216832.40444  23008709.557 4  23008710.506 4
        46.000          31.000
  22971273.633 7 120714858.452 7  94063535.48443  22971272.440 3  22971275.071 3
        45.000          27.000
 13  1 30  0  2  0.0000000  0  8G25G02G12G29G04G24G31G14
  20215211.317 8 106231680.939 8  82777952.44846  20215211.041 6  20215215.792 6
        53.000          44.000
  22329469.451 7 117342179.177 7  91435485.26545  22329469.277 5  22329470.179 5
        49.000          36.000
  20866185.115 8 109652580.448 8  85443591.29846  20866185.200 6  20866186.891 6
        52.000          42.000
  22021193.659 7 115722176.618 7  90173139.23545  22021193.687 5  22021196.029 5
        48.000          36.000
  23064812.465 7 121206421.121 7  94446577.98243  23064811.585 3  23064814.041 3
        46.000          26.000
  24417584.965 5 128315255.321 5  99985928.62941  24417584.787 1  24417590.242 1
        37.000          19.000
  22992088.331 7 120824252.295 7  94148769.65744  22992087.917 4  22992088.797 4
        47.000          32.000
  22985741.275 6 120790887.368 6  94122778.77143  22985740.754 3  22985742.301 3
        44.000          26.000
 13  1 30  0  2 30.0000000  0  8G25G02G12G29G04G24G31G14
  20212169.995 8 106215699.828 8  82765499.63946  20212169.862 6  20212174.611 6
        53.000          44.000
  22323440.818 7 117310499.494 7  91410799.80945  22323440.956 5  22323441.373 5
        49.000          36.000
  20876858.442 8 109708666.851 8  85487294.98646  20876858.099 6  20876859.638 6
        53.000          42.000
  22003924.525 7 115631426.572 7  90102424.93245  22003924.692 5  22003926.998 5
        48.000          36.000
  23075025.248 7 121260100.312 7  94488405.94143  23075025.716 3  23075027.817 3
        45.000          25.000
  24439570.031 5 128430787.446 5 100075953.61141  24439571.515 1  24439574.455 1
        38.000          19.000
  22975523.107 7 120737202.067 7  94080938.32444  22975522.816 4  22975523.459 4
        46.000          31.000
  23000285.551 6 120867321.342 6  94182337.68843  23000284.517 3  23000287.181 3
        44.000          26.000
 13  1 30  0  3  0.0000000  0  8G25G02G12G29G04G24G31G14
  20209214.992 8 106200170.301 8  82753398.71346  20209214.837 6  20209219.568 6
        53.000          44.000
  22317513.516 7 117279349.962 7  91386527.45645  22317513.315 5  22317514.055 5
        49.000          36.000
  20887600.795 8 109765120.997 8  85531285.22646  20887600.791 6  20887602.538 6
        52.000          42.000
  21986718.983 7 115541007.641 7  90031968.64045  21986718.805 5  21986720.540 5
        49.000          37.000
  23085349.011 7 121314348.382 7  94530677.15743  23085348.557 3  23085351.783 3
        45.000          25.000
  24461574.855 5 128546417.556 5 100166054.99241  24461574.377 1  24461578.517 1
        39.000          19.000
  22959015.135 7 120650451.026 7  94013340.10844  22959014.784 4  22959015.357 4
        47.000          32.000
  23014906.912 6 120944157.615 6  94242210.08943  23014906.634 3  23014909.242 3
        43.000          26.000
 13  1 30  0  3 30.0000000  0  8G25G02G12G29G04G24G31G14
  20206345.901 8 106185092.839 8  82741650.04647  20206345.628 6  20206350.254 7
        53.000          45.000
  22311687.248 7 117248731.833 7  91362669.19145  22311687.071 5  22311687.436 5
        49.000          36.000
  20898413.456 8 109821941.667 8  85575561.06646  20898413.401 6  20898415.045 6
        51.000          43.000
  21969575.615 7 115450921.322 7  89961771.52545  21969575.524 5  21969577.913 5
        49.000          36.000
  23095780.245 7 121369162.874 7  94573389.77743  23095780.114 3  23095782.562 3
        45.000          26.000
  24483594.439 5 128662143.440 5 100256230.94542  24483596.386 1  24483602.530 2
        37.000          20.000
  22942563.924 7 120564001.786 7  93945977.06344  22942563.833 4  22942564.756 4
        46.000          31.000
  23029604.069 6 121021393.519 6  94302393.88443  23029604.100 3  23029605.843 3
        43.000          26.000
 13  1 30  0  4  0.0000000  0  8G25G02G12G29G04G24G31G14
  20203563.088 8 106170467.852 8  82730253.95746  20203562.687 6  20203567.360 6
        53.000          44.000
  22305961.848 7 117218646.191 7  91339225.84545  22305961.745 5  22305962.197 5
        49.000          36.000
  20909295.902 8 109879127.438 8  85620121.40546  20909295.628 6  20909297.157 6
        52.000          43.000
  21952497.158 8 115361169.590 8  89891835.13045  21952496.708 5  21952498.858 5
        50.000          37.000
  23106318.202 7 121424542.155 7  94616542.47943  23106318.657 3  23106320.588 3
        45.000          26.000
  24505637.517 5 128777963.121 5 100346480.00341  24505635.943 1  24505640.221 1
        39.000          19.000
  22926170.690 7 120477856.658 7  93878850.98344  22926170.867 4  22926171.959 4
        46.000          32.000
  23044376.944 6 121099025.982 6  94362886.69043  23044377.110 3  23044378.854 3
        43.000          26.000
 13  1 30  0  4 30.0000000  0  8G25G02G12G29G04G24G31G14
  20200866.164 8 106156295.799 8  82719210.79946  20200865.830 6  20200870.514 6
        53.000          44.000
  22300339.223 8 117189094.250 8  91316198.37245  22300338.420 5  22300338.895 5
        50.000          36.000
  20920247.129 8 109936677.555 8  85664965.64546  20920246.987 6  20920248.579 6
        51.000          43.000
  21935480.908 7 115271754.125 7  89822160.76245  21935481.288 5  21935483.493 5
        49.000          37.000
  23116963.751 6 121480484.121 6  94660133.61843  23116963.653 3  23116965.957 3
        44.000          25.000
  24527691.786 5 128893874.480 5 100436800.52341  24527692.457 1  24527697.611 1
        36.000          19.000
  22909836.604 7 120392017.883 7  93811963.62844  22909836.388 4  22909837.322 4
        46.000          31.000
  23059224.975 6 121177052.401 6  94423686.46543  23059225.057 3  23059226.874 3
        43.000          26.000
 13  1 30  0  5  0.0000000  0  8G25G02G12G29G04G24G31G14
  20198255.460 8 106142577.083 8  82708520.89646  20198255.221 6  20198259.837 6
        53.000          44.000
  22294817.291 7 117160077.217 7  91293587.70445  22294816.787 5  22294816.896 5
        49.000          36.000
  20931267.594 8 109994590.654 8  85710092.72946  20931267.618 6  20931269.143 6
        52.000          43.000
  21918530.253 7 115182676.724 7  89752749.81945  21918530.198 5  21918532.540 5
        49.000          37.000
  23127714.771 6 121536986.828 6  94704161.69643  23127716.026 3  23127717.881 3
        41.000          25.000
  24549767.151 5 129009875.799 5 100527191.14541  24549765.729 1  24549772.612 1
        37.000          18.000
  22893560.247 7 120306487.491 7  93745316.57044  22893560.247 4  22893561.460 4
        46.000          32.000
  23074147.707 6 121255470.051 6  94484791.10643  23074147.469 3  23074149.871 3
        43.000          26.000
 13  1 30  0  5 30.0000000  0  8G25G02G12G29G04G24G31G14
  20195731.274 8 106129312.152 8  82698184.59046  20195731.090 6  20195735.633 6
        53.000          44.000
  22289397.814 7 117131596.284 7  91271394.77645  22289397.165 5  22289397.174 5
        49.000          36.000
  20942357.217 8 110052866.270 8  85755502.29346  20942357.152 6  20942358.511 6
        52.000          42.000
  21901644.122 7 115093939.356 7  89683603.84045  21901644.077 5  21901646.671 5
        48.000          37.000
  23138573.968 6 121594048.365 6  94748625.21142  23138574.257 2  23138575.877 2
        41.000          24.000
  24571857.805 5 129125964.337 5 100617649.67342  24571858.042 2  24571863.716 2
        38.000          21.000
  22877343.059 7 120221268.219 7  93678911.93944  22877343.587 4  22877344.814 4
        46.000          32.000
  23089143.862 6 121334276.159 6  94546198.44443  23089143.284 3  23089146.236 3
        44.000          25.000
 13  1 30  0  6  0.0000000  0  8G25G02G12G29G04G24G31G14
  20193293.800 8 106116501.382 8  82688202.16946  20193293.200 6  20193297.789 6
        53.000          44.000
  22284080.267 8 117103652.392 8  91249620.31845  22284079.447 5  22284080.068 5
        50.000          36.000
  20953515.416 8 110111502.751 8  85801193.05046  20953515.369 6  20953516.779 6
        53.000          43.000
  21884823.107 7 115005543.491 7  89614723.96545  21884823.168 5  21884825.377 5
        49.000          37.000
  23149537.776 6 121651666.504 6  94793522.45042  23149537.300 2  23149540.693 2
        42.000          24.000
  24593964.074 5 129242138.389 5 100708174.87941  24593965.227 1  24593969.906 1
        37.000          17.000
  22861186.503 7 120136361.968 7  93612751.23344  22861186.680 4  22861187.475 4
        47.000          32.000
  23104214.291 6 121413468.036 6  94607906.37843  23104212.986 3  23104216.203 3
        43.000          26.000
 13  1 30  0  6 30.0000000  0  8G25G02G12G29G04G24G31G14
  20190942.261 8 106104145.185 8  82678573.96646  20190941.863 6  20190946.467 6
        53.000          44.000
  22278864.822 7 117076246.864 7  91228265.37245  22278863.938 5  22278864.336 5
        49.000          35.000
  20964742.233 8 110170499.412 8  85847164.47046  20964741.970 6  20964743.433 6
        52.000          42.000
  21868066.791 7 114917490.820 7  89546111.50945  21868067.094 5  21868069.362 5
        47.000          37.000
  23160608.100 6 121709839.214 6  94838851.85243  23160607.644 3  23160611.203 3
        43.000          25.000
  24616088.972 5 129358396.167 5 100798765.36541  24616088.764 1  24616093.095 1
        37.000          17.000
  22845089.777 7 120051770.962 7  93546836.16944  22845089.800 4  22845090.489 4
        46.000          32.000
  23119355.593 6 121493043.025 6  94669912.83443  23119355.736 3  23119358.778 3
        43.000          26.000
 13  1 30  0  7  0.0000000  0  8G25G02G12G29G04G24G31G14
  20188677.967 8 106092243.936 8  82669300.26146  20188677.093 6  20188681.749 6
        53.000          44.000
  22273752.067 8 117049380.524 8  91207330.57845  22273751.362 5  22273752.097 5
        50.000          36.000
  20976036.771 8 110229854.782 8  85893415.40046  20976036.890 6  20976038.518 6
        52.000          43.000
  21851376.952 7 114829782.949 7  89477767.72345  21851376.853 5  21851379.227 5
        48.000          37.000
  23171783.828 7 121768564.431 7  94884611.76043  23171783.676 3  23171786.282 3
        45.000          26.000
  24638226.072 5 129474735.197 5 100889419.10641  24638227.115 1  24638232.891 1
        36.000          19.000
  22829052.876 7 119967497.589 7  93481168.59844  22829052.832 4  22829053.887 4
        46.000          33.000
  23134571.313 6 121572997.614 6  94732215.08243  23134570.813 3  23134574.164 3
        43.000          25.000
 13  1 30  0  7 30.0000000  0  8G25G02G12G29G04G24G31G14
  20186499.298 8 106080798.072 8  82660381.40746  20186498.967 6  20186503.672 6
        53.000          44.000
  22268742.623 8 117023054.588 8  91186816.87045  22268742.095 5  22268742.652 5
        50.000          36.000
  20987399.946 8 110289567.954 8  85939945.13546  20987399.966 6  20987401.467 6
        52.000          42.000
  21834752.218 7 114742421.898 7  89409694.17445  21834752.625 5  21834754.723 5
        49.000          37.000
  23183063.192 7 121827839.962 7  94930800.48743  23183063.131 3  23183065.565 3
        45.000          26.000
  24660380.751 5 129591153.711 5 100980134.72441  24660379.206 1  24660386.110 1
        35.000          16.000
  22813077.216 7 119883544.495 7  93415750.60944  22813077.261 4  22813078.470 4
        47.000          32.000
  23149858.443 6 121653329.312 6  94794811.17543  23149857.251 3  23149859.719 3
        43.000          25.000
 13  1 30  0  8  0.0000000  0  8G25G02G12G29G04G24G31G14
  20184408.118 8 106069807.925 8  82651817.65347  20184407.693 6  20184412.317 7
        53.000          45.000
  22263836.184 7 116997269.966 7  91166724.96945  22263835.421 5  22263835.975 5
        49.000          36.000
  20998831.099 8 110349637.821 8  85986752.81946  20998830.973 6  20998832.346 6
        52.000          42.000
  21818194.308 8 114655409.379 8  89341892.22345  21818194.548 5  21818196.945 5
        50.000          37.000
  23194447.870 7 121887663.892 7  94977416.53443  23194447.698 3  23194449.569 3
        45.000          26.000
  24682548.559 5 129707649.535 5 101070910.72641  24682549.786 1  24682552.846 1
        38.000          17.000
  22797162.984 7 119799913.657 7  93350583.71744  22797162.789 4  22797163.934 4
        47.000          33.000
  23165216.302 6 121734035.345 6  94857698.96343  23165215.850 3  23165217.838 3
        42.000          25.000
 13  1 30  0  8 30.0000000  0  8G25G02G12G29G04G24G31G14
  20182403.761 8 106059273.878 8  82643609.30146  20182403.216 6  20182407.765 6
        53.000          44.000
  22259031.842 7 116972027.514 7  91147055.53645  22259031.721 5  22259032.569 5
        47.000          36.000
  21010329.977 8 110410063.389 8  86033837.67546  21010329.627 6  21010330.718 6
        53.000          42.000
  21801703.173 7 114568746.820 7  89274362.97245  21801703.261 5  21801705.463 5
        49.000          37.000
  23205935.759 7 121948033.973 7  95024458.14343  23205935.805 3  23205938.185 3
        45.000          26.000
  24704730.560 4 129824220.617 4 101161745.27341  24704729.271 1  24704737.160 1
        34.000          16.000
  22781310.240 7 119716607.599 7  93285669.90744  22781310.243 4  22781311.000 4
        46.000          33.000
  23180644.793 6 121815113.147 6  94920876.45043  23180644.680 3  23180646.398 3
        43.000          25.000
 13  1 30  0  9  0.0000000  0  8G25G02G12G29G04G24G31G14
  20180485.503 8 106049196.279 8  82635756.62747  20180485.408 6  20180490.115 7
        54.000          45.000
  22254332.030 7 116947328.448 7  91127809.52845  22254331.707 5  22254332.432 5
        49.000          36.000
  21021895.760 8 110470843.492 8  86081198.79246  21021895.549 6  21021897.001 6
        52.000          43.000
  21785279.153 7 114482435.996 7  89207107.80045  21785279.008 5  21785281.187 5
        49.000          37.000
  23217526.979 6 122008948.074 6  95071923.68043  23217527.452 3  23217529.018 3
        44.000          25.000
  24726929.026 5 129940865.107 5 101252636.97741  24726927.335 1  24726933.586 1
        36.000          17.000
  22765518.972 7 119633628.261 7  93221010.69844  22765519.719 4  22765520.830 4
        47.000          33.000
  23196143.016 6 121896559.623 6  94984341.20043  23196143.422 3  23196145.248 3
        43.000          25.000
 13  1 30  0  9 30.0000000  0  8G25G02G12G29G04G24G31G14
  20178654.810 8 106039575.519 8  82628259.93147  20178654.655 7  20178659.254 7
        53.000          45.000
  22249736.268 8 116923173.777 8  91108987.72045  22249735.455 5  22249735.634 5
        50.000          36.000
  21033528.957 8 110531976.784 8  86128835.12046  21033528.862 6  21033530.262 6
        51.000          42.000
  21768921.920 7 114396478.557 7  89140127.99545  21768921.711 5  21768923.947 5
        49.000          37.000
  23229221.819 7 122070404.172 7  95119811.56943  23229222.310 3  23229223.587 3
        45.000          25.000
  24749138.016 5 130057580.797 5 101343584.33341  24749138.224 1  24749143.235 1
        36.000          16.000
  22749791.668 7 119550978.152 7  93156608.01644  22749791.601 4  22749793.070 4
        47.000          33.000
  23211712.033 6 121978372.013 6  95048091.09943  23211711.556 3  23211713.572 3
        43.000          25.000
 13  1 30  0 10  0.0000000  0  8G25G02G12G29G04G24G31G14
  20176911.287 8 106030411.908 8  82621119.45247  20176910.804 6  20176915.472 7
        54.000          45.000
  22245243.144 8 116899564.287 8  91090590.71345  22245242.681 5  22245243.002 5
        50.000          36.000
  21045229.036 8 110593462.762 8  86176746.26146  21045229.294 6  21045230.786 6
        53.000          42.000
  21752631.594 7 114310876.409 7  89073425.05045  21752632.011 5  21752634.343 5
        49.000          38.000
  23241019.709 7 122132399.992 7  95168119.96943  23241019.217 3  23241021.672 3
        45.000          25.000
  24771359.209 4 130174365.550 4 101434585.36041  24771359.409 1  24771367.157 1
        33.000          15.000
  22734127.300 7 119468659.420 7  93092463.54544  22734127.087 4  22734127.921 4
        46.000          33.000
  23227348.627 6 122060547.432 6  95112123.85743  23227348.711 3  23227350.935 3
        42.000          25.000
 13  1 30  0 10 30.0000000  0  8G25G02G12G29G04G24G31G14
  20175254.645 8 106021705.810 8  82614335.48046  20175254.176 6  20175258.837 6
        53.000          44.000
  22240854.266 7 116876500.870 7  91072619.23045  22240853.940 5  22240854.381 5
        48.000          36.000
  21056997.119 8 110655300.439 8  86224931.45846  21056996.705 6  21056998.225 6
        53.000          42.000
  21736410.402 8 114225630.888 8  89006999.99345  21736410.148 5  21736412.569 5
        50.000          38.000
  23252919.608 6 122194933.114 6  95216847.06543  23252919.807 3  23252921.602 3
        44.000          25.000
  24793599.937 5 130291217.439 5 101525638.70241  24793598.949 1  24793603.927 1
        37.000          17.000
  22718525.822 7 119386674.709 7  93028579.35744  22718525.749 4  22718527.275 4
        46.000          33.000
  23243055.473 6 122143082.889 6  95176437.17643  23243055.258 3  23243057.314 3
        43.000          25.000
 13  1 30  0 11  0.0000000  0  8G25G02G12G29G04G24G31G14
  20173684.940 8 106013457.531 8  82607908.24647  20173684.673 7  20173689.204 7
        54.000          45.000
  22236569.763 7 116853984.532 7  91055074.04545  22236569.084 5  22236569.108 5
        49.000          36.000
  21068830.616 8 110717488.296 8  86273389.51946  21068830.371 6  21068832.028 6
        52.000          42.000
  21720257.257 8 114140744.125 8  88940854.48445  21720256.774 5  21720259.323 5
        50.000          38.000
  23264920.603 6 122258001.542 6  95265991.31042  23264920.907 2  23264922.884 2
        44.000          24.000
  24815846.155 5 130408134.255 5 101616742.73041  24815847.328 1  24815853.133 1
        35.000          17.000
  22702988.794 7 119305026.173 7  92964957.12844  22702988.851 4  22702989.789 4
        47.000          33.000
  23258829.816 6 122225975.527 6  95241028.80343  23258828.851 3  23258831.197 3
        43.000          25.000
 13  1 30  0 11 30.0000000  0  8G25G02G12G29G04G24G31G14
  20172202.562 8 106005667.410 8  82601838.02746  20172202.249 6  20172206.712 6
        54.000          44.000
  22232388.917 8 116832016.180 8  91037955.85745  22232388.666 5  22232388.996 5
        50.000          36.000
  21080730.460 8 110780025.362 8  86322119.69946  21080730.813 6  21080732.169 6
        52.000          42.000
  21704171.880 8 114056217.486 8  88874989.59445  21704172.056 5  21704174.576 5
        50.000          38.000
  23277023.091 6 122321602.940 6  95315550.84342  23277023.356 2  23277025.103 2
        42.000          23.000
  24838107.827 5 130525114.269 5 101707895.90841  24838107.537 1  24838114.181 1
        35.000          11.000
  22687516.213 7 119223716.065 7  92901598.60444  22687515.606 4  22687517.126 4
        46.000          33.000
  23274670.866 6 122309222.691 6  95305896.68443  23274670.548 3  23274672.013 3
        43.000          25.000
 13  1 30  0 12  0.0000000  0  8G25G02G12G29G04G24G31G14
  20170807.331 8 105998335.743 8  82596125.03647  20170807.087 7  20170811.719 7
        53.000          45.000
  22228313.351 8 116810596.615 8  91021265.30145  22228312.642 5  22228313.146 5
        50.000          36.000
  21092697.168 8 110842909.907 8  86371120.62946  21092697.436 6  21092698.876 6
        52.000          42.000
  21688155.851 8 113972052.630 8  88809406.60945  21688156.045 5  21688158.482 5
        50.000          39.000
  23289227.638 6 122385735.208 6  95365524.03642  23289228.247 2  23289228.625 2
        43.000          22.000
  24860380.591 5 130642155.019 5 101799096.44141  24860379.953 1  24860385.379 1
        37.000          17.000
  22672108.289 7 119142746.699 7  92838505.58444  22672108.085 4  22672109.095 4
        47.000          34.000
  23290580.374 6 122392821.311 6  95371038.44843  23290578.201 3  23290580.714 3
        42.000          25.000
 13  1 30  0 12 30.0000000  0  8G25G02G12G29G04G24G31G14
  20169499.406 8 105991462.889 8  82590769.56846  20169499.108 6  20169503.789 6
        53.000          44.000
  22224342.104 7 116789727.079 7  91005003.33045  22224341.354 5  22224341.550 5
        48.000          36.000
  21104730.071 8 110906141.808 8  86420392.23646  21104730.130 6  21104731.533 6
        51.000          42.000
  21672209.480 7 113888251.197 7  88744106.81845  21672209.273 5  21672211.574 5
        49.000          38.000
  23301532.032 6 122450396.108 6  95415909.15942  23301531.544 2  23301534.297 2
        42.000          22.000
  24882663.845 5 130759254.906 5 101890343.03841  24882663.644 1  24882667.592 1
        36.000          16.000
  22656764.841 7 119062120.055 7  92775679.64144  22656765.340 4  22656766.008 4
        47.000          33.000
  23306554.274 6 122476768.556 6  95436451.86242  23306552.837 2  23306555.191 2
        43.000          24.000
 13  1 30  0 13  0.0000000  0  8G25G02G12G29G04G24G31G14
  20168279.049 8 105985049.039 8  82585771.76546  20168278.653 6  20168283.196 6
        53.000          44.000
  22220475.017 7 116769407.700 7  90989170.04945  22220474.519 5  22220475.300 5
        49.000          36.000
  21116828.058 8 110969719.338 8  86469933.16046  21116828.452 6  21116830.274 6
        52.000          42.000
  21656331.803 8 113804814.548 8  88679091.26645  21656331.955 5  21656334.030 5
        50.000          39.000
  23313936.262 6 122515583.100 6  95466704.22042  23313935.724 2  23313939.362 2
        41.000          21.000
  24904956.830 5 130876411.639 5 101981633.99141  24904956.011 1  24904961.229 1
        36.000          13.000
  22641488.362 7 118981838.732 7  92713122.75544  22641488.072 4  22641489.347 4
        48.000          34.000
  23322594.183 6 122561061.427 6  95502134.59342  23322593.583 2  23322596.214 2
        44.000          24.000
 13  1 30  0 13 30.0000000  0  8G25G02G12G29G04G24G31G14
  20167145.888 8 105979094.594 8  82581131.93446  20167145.378 6  20167150.169 6
        53.000          44.000
  22216712.688 7 116749639.711 7  90973766.43045  22216712.639 5  22216713.472 5
        49.000          36.000
  21128993.159 8 111033641.602 8  86519742.71146  21128992.678 6  21128994.031 6
        52.000          42.000
  21640523.839 8 113721744.710 8  88614361.53745  21640524.190 5  21640526.465 5
        50.000          39.000
  23326440.096 6 122581294.238 6  95517907.71042  23326440.662 2  23326443.857 2
        42.000          21.000
  24927261.076 5 130993623.121 5 102072967.59941  24927262.964 1  24927267.355 1
        37.000          18.000
  22626277.404 7 118901904.863 7  92650836.62244  22626277.337 4  22626278.633 4
        48.000          34.000
  23338698.969 6 122645697.237 6  95568084.52242  23338699.841 2  23338701.007 2
        41.000          24.000
 13  1 30  0 14  0.0000000  0  8G25G02G12G29G04G24G31G14
  20166100.332 8 105973599.749 8  82576850.23247  20166099.923 7  20166104.560 7
        53.000          45.000
  22213056.328 7 116730423.752 7  90958792.96645  22213056.185 5  22213056.467 5
        49.000          36.000
  21141222.326 8 111097907.767 8  86569820.23646  21141222.075 6  21141223.472 6
        52.000          42.000
  21624786.685 8 113639043.176 8  88549918.80145  21624786.688 5  21624788.706 5
        52.000          39.000
  23339043.813 6 122647526.928 6  95569517.61041  23339044.331 2  23339046.989 1
        40.000          19.000
  24949576.747 5 131110887.755 5 102164342.62241  24949576.972 1  24949581.692 1
        36.000          15.000
  22611132.921 7 118822320.848 7  92588823.10644  22611133.084 4  22611134.336 4
        48.000          34.000
  23354870.015 6 122730672.800 6  95634299.21842  23354869.675 2  23354871.679 2
        42.000          23.000
 13  1 30  0 14 30.0000000  0  8G25G02G12G29G04G24G31G14
  20165141.889 8 105968564.838 8  82572926.92046  20165141.774 6  20165146.418 6
        53.000          44.000
  22209505.808 7 116711760.628 7  90944250.27845  22209504.558 5  22209505.184 5
        49.000          36.000
  21153516.494 8 111162516.228 8  86620164.48646  21153516.636 6  21153517.956 6
        52.000          41.000
  21609118.991 8 113556711.673 8  88485764.39745  21609119.476 5  21609121.563 5
        51.000          39.000
  23351746.878 6 122714279.255 6  95621532.38441  23351747.138 2  23351749.710 1
        40.000          19.000
  24971901.311 5 131228203.124 5 102255757.09141  24971900.030 1  24971905.738 1
        36.000          15.000
  22596055.374 7 118743088.991 7  92527084.00244  22596055.826 4  22596056.865 4
        47.000          34.000
  23371104.257 6 122815985.256 6  95700776.42142  23371104.591 2  23371106.503 2
        41.000          23.000
 13  1 30  0 15  0.0000000  0  8G25G02G12G29G04G24G31G14
  20164271.437 8 105963990.061 8  82569362.15947  20164271.111 6  20164275.828 7
        53.000          45.000
  22206059.236 7 116693651.303 7  90930139.12945  22206058.494 5  22206058.909 5
        49.000          36.000
  21165876.292 8 111227466.149 8  86670774.80746  21165876.078 6  21165877.528 6
        51.000          42.000
  21593522.930 7 113474751.632 7  88421899.44745  21593522.783 5  21593525.026 5
        49.000          39.000
  23364547.796 6 122781548.346 6  95673949.85442  23364547.873 2  23364550.822 2
        40.000          21.000
  24994233.885 5 131345567.084 5 102347209.55041  24994233.805 1  24994237.631 1
        36.000          14.000
  22581045.801 7 118664211.475 7  92465621.00444  22581045.781 5  22581047.161 4
        47.000          34.000
  23387402.605 6 122901631.801 6  95767513.95742  23387402.371 2  23387404.494 2
        43.000          23.000
 13  1 30  0 15 30.0000000  0  8G25G02G12G29G04G24G31G14
  20163488.914 8 105959875.759 8  82566156.21147  20163488.375 7  20163492.835 7
        53.000          45.000
  22202717.989 7 116676096.321 7  90916459.92745  22202717.819 5  22202718.676 5
        48.000          36.000
  21178300.383 8 111292756.082 8  86721650.06446  21178300.427 6  21178301.934 6
        51.000          41.000
  21577997.449 8 113393164.261 8  88358324.88945  21577997.276 5  21577999.322 5
        50.000          39.000
  23377447.271 6 122849332.100 6  95726768.36842  23377447.135 2  23377449.322 2
        41.000          20.000
  25016575.912 4 131462977.946 4 102438698.49341  25016576.761 1  25016583.290 1
        33.000          13.000
  22566103.587 7 118585690.517 7  92404435.84945  22566103.434 5  22566104.877 5
        46.000          35.000
  23403763.352 6 122987609.355 6  95834509.41042  23403762.971 2  23403765.062 2
        42.000          23.000
 13  1 30  0 16  0.0000000  0  8G25G02G12G29G04G24G31G14
  20162793.157 8 105956222.091 8  82563309.20047  20162792.991 6  20162797.597 7
        54.000          45.000
  22199483.452 7 116659096.422 7  90903213.25945  22199482.927 5  22199483.758 5
        49.000          36.000
  21190788.915 8 111358384.999 8  86772789.47546  21190789.111 6  21190790.541 6
        51.000          41.000
  21562542.964 8 113311951.715 8  88295042.40645  21562542.961 5  21562545.249 5
        51.000          39.000
  23390442.978 6 122917628.214 6  95779986.10642  23390442.541 2  23390445.531 2
        42.000          21.000
  25038926.695 5 131580433.189 5 102530221.96141  25038928.777 1  25038934.874 1
        35.000          15.000
  22551230.339 7 118507528.398 7  92343530.30245  22551230.095 5  22551231.006 5
        48.000          35.000
  23420187.106 6 123073915.067 6  95901760.58742  23420186.299 2  23420189.236 2
        43.000          22.000
 13  1 30  0 16 30.0000000  0  8G25G02G12G29G04G24G31G14
  20162186.135 8 105953029.354 8  82560821.35346  20162185.518 6  20162190.203 6
        53.000          44.000
  22196354.306 7 116642652.132 7  90890399.53345  22196353.730 5  22196354.077 5
        49.000          36.000
  21203342.413 8 111424352.153 8  86824192.44746  21203342.386 6  21203343.711 6
        51.000          41.000
  21547160.528 7 113231115.620 7  88232053.25245  21547160.347 5  21547162.548 5
        49.000          39.000
  23403536.273 6 122986434.433 6  95833601.32042  23403536.157 2  23403539.544 2
        40.000          22.000
  25061286.561 5 131697931.225 5 102621778.88041  25061287.324 1  25061292.751 1
        37.000          15.000
  22536425.452 7 118429727.637 7  92282906.33445  22536425.164 5  22536426.286 5
        47.000          35.000
  23436672.386 6 123160545.855 6  95969265.06142  23436672.378 2  23436674.049 2
        41.000          22.000
 13  1 30  0 17  0.0000000  0  8G25G02G12G29G04G24G31G14
  20161666.006 8 105950297.744 8  82558692.82246  20161665.665 6  20161670.325 6
        53.000          44.000
  22193330.403 7 116626764.293 7  90878019.40245  22193330.377 5  22193331.031 5
        48.000          36.000
  21215959.479 8 111490656.357 8  86875858.05446  21215959.372 6  21215961.020 6
        52.000          41.000
  21531849.806 8 113150657.243 8  88169358.42346  21531849.525 5  21531851.881 6
        50.000          40.000
  23416727.167 6 123055748.138 6  95887612.00342  23416725.836 2  23416728.924 2
        42.000          22.000
  25083653.536 5 131815469.957 5 102713367.51041  25083653.529 1  25083659.128 1
        35.000          13.000
  22521689.304 7 118352290.230 7  92222565.50045  22521689.568 5  22521690.395 5
        49.000          35.000
  23453219.501 6 123247498.869 6  96037020.62842  23453218.755 2  23453220.712 2
        41.000          22.000
 13  1 30  0 17 30.0000000  0  8G25G02G12G29G04G24G31G14
  20161234.259 8 105948027.522 8  82556923.81846  20161233.755 6  20161238.291 6
        52.000          44.000
  22190413.548 7 116611433.403 7  90866073.26145  22190412.853 5  22190413.483 5
        49.000          36.000
  21228641.018 8 111557296.233 8  86927785.22346  21228640.569 6  21228642.185 6
        51.000          41.000
  21516610.255 8 113070578.451 8  88106959.38045  21516610.982 5  21516613.136 5
        50.000          39.000
  23430012.685 6 123125567.112 6  95942016.40742  23430012.743 2  23430015.158 2
        42.000          22.000
  25106028.179 5 131933047.309 5 102804986.19241  25106028.264 1  25106033.335 1
        35.000          15.000
  22507023.428 7 118275218.710 7  92162509.77645  22507023.326 5  22507024.257 5
        48.000          35.000
  23469826.393 6 123334771.367 6  96105025.13342  23469825.282 2  23469828.482 2
        41.000          22.000
 13  1 30  0 18  0.0000000  0  8G25G02G12G29G04G24G31G14
  20160889.673 8 105946218.840 8  82555514.45046  20160889.420 7  20160894.145 6
        53.000          44.000
  22187602.254 7 116596660.166 7  90854561.65445  22187601.694 5  22187602.179 5
        49.000          36.000
  21241385.550 8 111624270.620 8  86979973.04446  21241385.267 6  21241386.962 6
        51.000          41.000
  21501445.392 8 112990880.397 8  88044857.01346  21501444.984 6  21501447.440 6
        51.000          40.000
  23443394.438 6 123195888.650 6  95996812.41342  23443395.124 2  23443396.321 2
        40.000          21.000
  25128410.518 5 132050661.446 5 102896633.54241  25128409.737 1  25128415.987 1
        37.000          16.000
  22492426.722 7 118198515.149 7  92102740.76845  22492426.947 5  22492427.836 5
        49.000          35.000
  23486493.057 6 123422359.902 6  96173275.93442  23486493.726 2  23486496.789 2
        41.000          22.000
 13  1 30  0 18 30.0000000  0  8G25G02G12G29G04G24G31G14
  20160633.213 8 105944871.994 8  82554464.96246  20160633.167 6  20160637.731 6
        53.000          44.000
  22184896.652 7 116582445.148 7  90843485.02245  22184896.838 5  22184897.582 5
        49.000          37.000
  21254194.014 8 111691578.262 8  87032420.55246  21254193.574 6  21254195.182 6
        52.000          41.000
  21486351.598 8 112911564.915 8  87983052.75445  21486351.692 5  21486354.207 5
        50.000          39.000
  23456871.890 6 123266710.597 6  96051998.34542  23456871.324 2  23456873.000 2
        43.000          20.000
  25150796.490 5 132168310.129 5 102988307.86541  25150795.042 1  25150802.337 1
        35.000          13.000
  22477901.124 7 118122181.729 7  92043260.18545  22477900.929 5  22477901.990 5
        48.000          35.000
  23503220.819 6 123510261.797 6  96241770.87542  23503220.993 2  23503223.016 2
        41.000          21.000
 13  1 30  0 19  0.0000000  0  8G25G02G12G29G04G24G31G14
  20160465.169 8 105943987.076 8  82553775.41146  20160464.750 6  20160469.304 6
        53.000          44.000
  22182298.182 7 116568789.275 7  90832844.08845  22182298.005 5  22182298.490 5
        47.000          36.000
  21267065.409 8 111759217.907 8  87085126.76546  21267065.141 6  21267066.600 6
        51.000          41.000
  21471331.651 8 112832633.336 8  87921547.64546  21471331.566 6  21471334.017 6
        50.000          40.000
  23470443.553 6 123338030.533 6  96107572.33441  23470444.060 1  23470444.161 1
        42.000          19.000
  25173190.856 4 132285991.228 4 103080007.38241  25173190.549 1  25173197.671 1
        34.000          11.000
  22463446.228 7 118046220.808 7  91984069.85245  22463446.220 5  22463446.901 5
        49.000          36.000
  23520007.616 6 123598474.057 6  96310507.66442  23520007.084 2  23520009.282 2
        42.000          22.000
 13  1 30  0 19 30.0000000  0  8G25G02G12G29G04G24G31G14
  20160384.512 8 105943564.369 8  82553446.03347  20160384.207 7  20160389.006 7
        52.000          45.000
  22179806.358 7 116555692.478 7  90822638.80545  22179805.667 5  22179806.068 5
        48.000          36.000
  21280000.166 8 111827189.179 8  87138091.39146  21279999.559 6  21280001.258 6
        51.000          41.000
  21456385.288 8 112754087.265 8  87860342.92345  21456384.908 5  21456387.043 5
        50.000          39.000
  23484110.043 6 123409845.902 6  96163532.32342  23484109.692 2  23484112.022 2
        41.000          21.000
  25195590.441 4 132403702.514 4 103171730.48041  25195589.841 1  25195595.075 1
        34.000          11.000
  22449062.934 7 117970634.701 7  91925171.59045  22449062.677 5  22449063.189 5
        48.000          35.000
  23536851.769 6 123686993.637 6  96379483.92342  23536852.129 2  23536855.150 2
        41.000          22.000
 13  1 30  0 20  0.0000000  0  8G25G02G12G29G04G24G31G14
  20160392.240 8 105943603.927 8  82553476.85547  20160391.893 6  20160396.495 7
        52.000          45.000
  22177420.350 7 116543155.419 7  90812869.68245  22177420.116 5  22177420.243 5
        48.000          36.000
  21292997.455 8 111895490.785 8  87191313.41346  21292997.164 6  21292998.600 6
        52.000          41.000
  21441511.229 8 112675928.030 8  87799439.63545  21441511.527 5  21441513.831 5
        50.000          39.000
  23497868.922 6 123482154.201 6  96219876.44342  23497869.819 2  23497871.067 2
        42.000          20.000
  25217995.749 4 132521442.569 4 103263475.94841  25217995.787 1  25218001.753 1
        33.000          12.000
  22434749.849 7 117895425.563 7  91866567.06245  22434750.566 5  22434751.631 5
        49.000          36.000
  23553754.259 6 123775817.564 6  96448697.33942  23553754.047 2  23553757.279 2
        41.000          22.000
 13  1 30  0 20 30.0000000  0  8G25G02G12G29G04G24G31G14
  20160487.592 8 105944106.087 8  82553868.15146  20160487.506 6  20160491.939 6
        53.000          44.000
  22175141.144 7 116531179.005 7  90803537.41545  22175140.869 5  22175141.182 5
        48.000          36.000
  21306057.072 8 111964121.281 8  87244791.71646  21306057.173 6  21306058.660 6
        51.000          41.000
  21426711.931 8 112598157.478 8  87738839.21645  21426712.219 5  21426714.350 5
        50.000          39.000
  23511723.189 6 123554953.080 6  96276602.84041  23511721.512 1  23511722.916 1
        40.000          19.000
  25240405.695 4 132639209.110 4 103355242.05741  25240403.387 1  25240412.603 1
        32.000          11.000
  22420511.069 7 117820595.741 7  91808258.11345  22420511.220 5  22420512.121 5
        49.000          36.000
  23570715.398 6 123864942.981 6  96518145.66342  23570714.058 2  23570716.694 2
        41.000          21.000
 13  1 30  0 21  0.0000000  0  8G25G02G12G29G04G24G31G14
  20160671.278 8 105945070.866 8  82554619.92346  20160670.990 6  20160675.592 6
        52.000          44.000
  22172969.557 8 116519763.764 8  90794642.42845  22172968.842 5  22172969.296 5
        50.000          36.000
  21319178.985 8 112033079.372 8  87298525.28646  21319179.366 6  21319180.791 6
        50.000          41.000
  21411987.490 7 112520776.941 7  87678542.70446  21411987.249 5  21411989.703 6
        49.000          40.000
  23525668.015 6 123628239.818 6  96333709.38141  23525667.688 1  23525671.112 1
        40.000          17.000
  25262821.490 4 132757000.195 4 103447027.28841  25262822.505 1  25262827.002 1
        34.000          11.000
  22406344.168 7 117746147.255 7  91750246.30745  22406344.276 5  22406344.983 5
        48.000          36.000
  23587733.021 6 123954366.969 6  96587826.65242  23587731.032 2  23587733.696 2
        42.000          22.000
 13  1 30  0 21 30.0000000  0  8G25G02G12G29G04G24G31G14
  20160943.218 8 105946498.515 8  82555732.37746  20160942.670 6  20160947.332 6
        53.000          44.000
  22170903.631 8 116508909.676 8  90786184.70345  22170903.381 5  22170903.847 5
        50.000          36.000
  21332363.623 8 112102363.454 8  87352512.87346  21332363.592 6  21332364.912 6
        51.000          40.000
  21397336.304 8 112443788.035 8  87618551.35746  21397336.890 6  21397338.959 6
        50.000          40.000
  23539706.871 5 123702012.231 5  96391194.38441  23539707.617 1  23539707.773 1
        39.000          17.000
  25285242.616 5 132874813.472 5 103538829.86641  25285240.444 1  25285245.355 1
        35.000          12.000
  22392250.103 8 117672082.634 8  91692533.61545  22392250.199 5  22392251.165 5
        50.000          36.000
  23604805.789 6 124044086.062 6  96657737.60342  23604805.176 2  23604807.233 2
        42.000          22.000
 13  1 30  0 22  0.0000000  0  8G25G02G12G29G04G24G31G14
  20161302.742 8 105948389.096 8  82557205.55447  20161302.442 7  20161306.954 7
        53.000          45.000
  22168945.169 7 116498617.491 7  90778164.82645  22168944.710 5  22168945.210 5
        48.000          36.000
  21345609.944 8 112171973.274 8  87406754.28646  21345609.867 6  21345611.420 6
        52.000          41.000
  21382761.025 8 112367192.344 8  87558866.41646  21382760.948 6  21382763.242 6
        51.000          40.000
  23553836.907 6 123776267.429 6  96449055.56541  23553835.374 1  23553839.397 1
        40.000          17.000
  25307663.243 5 132992647.657 5 103630648.71641  25307664.141 1  25307669.634 1
        35.000          14.000
  22378228.824 7 117598403.920 7  91635121.63345  22378229.187 5  22378230.442 5
        47.000          36.000
  23621933.485 6 124134097.506 6  96727876.36542  23621932.594 2  23621936.134 2
        41.000          22.000
 13  1 30  0 22 30.0000000  0  8G25G02G12G29G04G24G31G14
  20161750.386 8 105950742.808 8  82559039.61746  20161750.311 6  20161754.851 6
        53.000          44.000
  22167093.274 7 116488887.503 7  90770583.02545  22167092.901 5  22167093.971 5
        49.000          36.000
  21358917.749 8 112241907.872 8  87461248.77746  21358918.031 6  21358919.514 6
        51.000          41.000
  21368260.433 8 112290991.078 8  87499488.81646  21368260.391 6  21368262.742 6
        50.000          40.000
  23568058.859 6 123851003.333 6  96507291.34741  23568059.622 1  23568060.539 1
        40.000          19.000
  25330090.803 4 133110500.354 4 103722481.96641  25330090.031 1  25330097.582 1
        33.000          11.000
  22364282.769 7 117525113.457 7  91578012.18445  22364282.746 5  22364283.779 5
        49.000          36.000
  23639117.459 6 124224398.469 6  96798240.71442  23639117.292 2  23639118.685 2
        42.000          22.000
 13  1 30  0 23  0.0000000  0  8G25G02G12G29G04G24G31G14
  20162286.707 8 105953559.729 8  82561234.61646  20162286.393 6  20162290.941 6
        54.000          44.000
  22165348.456 7 116479720.341 7  90763439.78545  22165348.322 5  22165349.195 5
        48.000          36.000
  21372287.603 8 112312165.242 8  87515994.76946  21372287.529 6  21372289.009 6
        51.000          41.000
  21353835.072 8 112215185.508 8  87440419.54946  21353835.108 6  21353837.433 6
        51.000          40.000
  23582371.678 5 123926216.980 5  96565899.41041  23582372.381 1  23582374.295 1
        38.000          15.000
  25352520.207 4 133228369.528 4 103814328.04541  25352519.644 1  25352526.326 1
        33.000          10.000
  22350410.027 7 117452213.562 7  91521207.06245  22350410.102 5  22350411.312 5
        48.000          36.000
  23656355.919 6 124314985.947 6  96868828.31942  23656355.137 2  23656356.722 2
        42.000          22.000
 13  1 30  0 23 30.0000000  0  8G25G02G12G29G04G24G31G14
  20162911.215 8 105956840.040 8  82563790.70046  20162910.689 6  20162915.231 6
        53.000          44.000
  22163711.402 7 116471116.301 7  90756735.34245  22163711.018 5  22163711.857 5
        49.000          36.000
  21385718.331 8 112382744.629 8  87570991.68746  21385718.225 6  21385719.889 6
        52.000          40.000
  21339485.083 8 112139777.125 8  87381659.77946  21339485.309 6  21339487.551 6
        51.000          40.000
  23596774.443 5 124001906.214 5  96624877.99541  23596774.705 1  23596775.140 1
        35.000          13.000
  25374953.391 4 133346253.207 4 103906185.49141  25374952.991 1  25374958.196 1
        34.000          10.000
  22336612.402 7 117379706.052 7  91464707.70545  22336612.318 5  22336613.591 5
        49.000          36.000
  23673646.873 6 124405856.586 6  96939636.55642  23673647.277 2  23673650.928 2
        41.000          22.000
 13  1 30  0 24  0.0000000  0  8G25G02G12G29G04G24G31G14
  20163623.333 8 105960583.781 8  82566707.89646  20163622.987 6  20163627.776 6
        53.000          44.000
  22162181.850 8 116463075.596 8  90750469.86645  22162181.159 5  22162181.817 5
        50.000          36.000
  21399209.621 8 112453644.817 8  87626238.57346  21399210.019 6  21399211.723 6
        51.000          40.000
  21325211.618 8 112064767.510 8  87323210.72746  21325211.401 6  21325213.680 6
        51.000          40.000
  23611266.132 5 124078068.072 5  96684224.90841  23611268.676 1  23611268.722 1
        36.000          13.000
  25397387.037 4 133464149.526 4 103998052.77641  25397388.164 1  25397393.365 1
        33.000          11.000
  22322890.232 8 117307593.541 8  91408516.13045  22322889.994 5  22322891.080 5
        50.000          37.000
  23690993.403 6 124497007.587 6  97010663.26742  23690992.817 2  23690995.137 2
        41.000          22.000
 13  1 30  0 24 30.0000000  0  8G25G02G12G29G04G24G31G14
  20164424.135 8 105964791.125 8  82569986.34846  20164423.760 6  20164428.403 6
        53.000          44.000
  22160759.103 7 116455598.877 7  90744643.86045  22160758.573 5  22160758.954 5
        49.000          36.000
  21412762.774 8 112524864.876 8  87681734.72146  21412762.849 6  21412764.559 6
        51.000          41.000
  21311013.770 8 111990158.628 8  87265073.94646  21311013.980 6  21311016.074 6
        51.000          40.000
  23625850.021 5 124154700.383 5  96743938.36041  23625849.512 1  23625852.491 1
        35.000          12.000
  25419821.658 4 133582056.598 4 104089928.43241  25419825.722 1  25419830.792 1
        32.000          11.000
  22309243.261 7 117235878.161 7  91352634.02545  22309243.104 5  22309244.043 5
        49.000          36.000
  23708391.677 6 124588435.860 6  97081906.07442  23708390.983 2  23708392.392 2
        41.000          22.000
 13  1 30  0 25  0.0000000  0  8G25G02G12G29G04G24G31G14
  20165312.692 8 105969462.107 8  82573626.07046  20165312.543 6  20165317.246 6
        53.000          44.000
  22159443.533 7 116448686.284 7  90739257.43345  22159443.130 5  22159443.446 5
        49.000          36.000
  21426376.002 8 112596403.478 8  87737479.07646  21426376.407 6  21426377.990 6
        50.000          41.000
  21296892.609 8 111915951.460 8  87207250.19246  21296892.535 6  21296894.877 6
        50.000          40.000
  23640521.766 5 124231800.182 5  96804016.14641  23640521.618 1  23640523.673 1
        36.000          12.000
  25442262.747 4 133699972.087 4 104181810.67741  25442264.033 1  25442269.849 1
        32.000          10.000
  22295672.081 7 117164561.933 7  91297062.93345  22295672.115 5  22295673.170 5
        48.000          37.000
  23725841.666 6 124680138.457 6  97153362.57542  23725841.773 2  23725843.999 2
        40.000          20.000
 13  1 30  0 25 30.0000000  0  8G25G02G12G29G04G24G31G14
  20166289.734 8 105974596.818 8  82577627.14246  20166289.571 6  20166294.262 6
        52.000          44.000
  22158235.924 7 116442337.955 7  90734310.68345  22158235.155 5  22158235.701 5
        49.000          36.000
  21440050.118 8 112668259.160 8  87793470.50646  21440050.099 6  21440051.529 6
        51.000          40.000
  21282847.901 8 111842147.431 8  87149740.56446  21282848.161 6  21282850.552 6
        50.000          40.000
  23655280.940 5 124309365.046 5  96864456.34041  23655282.422 1  23655284.603 1
        35.000          10.000
  25464703.891 4 133817894.482 4 104273698.22741  25464702.426 1  25464707.736 1
        32.000          10.000
  22282177.852 8 117093647.147 8  91241804.65645  22282177.318 5  22282178.512 5
        50.000          37.000
  23743344.739 6 124772112.217 6  97225030.44942  23743344.360 2  23743344.980 2
        42.000          20.000
 13  1 30  0 26  0.0000000  0  8G25G02G12G29G04G24G31G14
  20167355.536 8 105980195.365 8  82581989.64546  20167355.059 6  20167359.573 6
        52.000          44.000
  22157134.688 7 116436554.453 7  90729804.06245  22157134.317 5  22157134.659 5
        48.000          36.000
  21453783.665 8 112740430.951 8  87849708.25846  21453783.861 6  21453785.236 6
        50.000          40.000
  21268880.800 8 111768747.969 8  87092546.18646  21268880.636 6  21268883.061 6
        51.000          41.000
  23670128.756 4 124387392.485 4  96925256.89441  23670127.811 1  23670130.958 1
        34.000           9.000
  25487145.060 4 133935821.532 4 104365589.50441  25487143.649 1  25487150.493 1
        32.000           8.000
  22268759.870 7 117023136.168 7  91186861.03245  22268759.840 5  22268760.657 5
        49.000          37.000
  23760897.694 6 124864354.489 6  97296907.48642  23760896.071 2  23760898.381 2
        41.000          20.000
 13  1 30  0 26 30.0000000  0  8G25G02G12G29G04G24G31G14
  20168509.155 8 105986257.830 8  82586713.64246  20168508.636 6  20168513.256 6
        53.000          44.000
  22156141.787 7 116431335.831 7  90725737.61045  22156141.433 5  22156141.840 5
        48.000          36.000
  21467577.252 8 112812917.483 8  87906191.26746  21467577.436 6  21467578.947 6
        51.000          40.000
  21254990.427 8 111695754.315 8  87035668.02346  21254990.546 6  21254992.604 6
        50.000          41.000
  23685065.538 4 124465879.828 4  96986415.84641  23685066.853 1  23685068.023 1
        34.000           9.000
  25509587.088 4 134053751.165 4 104457482.72741  25509588.653 1  25509588.980 1
        30.000           6.000
  22255419.022 7 116953031.079 7  91132233.70045  22255419.259 5  22255419.975 5
        47.000          37.000
  23778501.270 6 124956861.823 6  97368991.11941  23778498.964 1  23778501.734 1
        41.000          19.000
 13  1 30  0 27  0.0000000  0  8G25G02G12G29G04G24G31G14
  20169750.803 8 105992784.168 8  82591799.09846  20169750.497 6  20169755.183 6
        53.000          44.000
  22155256.970 7 116426682.469 7  90722111.62245  22155256.306 5  22155256.300 5
        48.000          36.000
  21481431.301 8 112885718.211 8  87962919.10646  21481431.246 6  21481432.815 6
        51.000          40.000
  21241178.037 8 111623167.868 8  86979107.16246  21241177.688 6  21241180.125 6
        50.000          41.000
  23700091.591 4 124544824.511 4  97047931.16641  23700089.800 1  23700091.888 1
        34.000           5.000
  25532024.068 3 134171681.580 3 104549376.58941  25532021.627 1  25532029.832 1
        29.000           3.000
  22242156.588 7 116883334.050 7  91077924.32445  22242156.260 5  22242157.244 5
        49.000          37.000
  23796153.810 6 125049631.020 6  97441278.74541  23796152.994 1  23796155.272 1
        40.000          19.000
 13  1 30  0 27 30.0000000  0  8G25G02G12G29G04G24G31G14
  20171081.200 8 105999774.529 8  82597246.13146  20171080.814 6  20171085.296 6
        53.000          44.000
  22154478.824 8 116422594.627 8  90718926.29545  22154478.264 5  22154478.444 5
        50.000          36.000
  21495343.847 8 112958831.406 8  88019890.42046  21495344.022 6  21495345.822 6
        51.000          40.000
  21227442.930 8 111550990.234 8  86922864.86546  21227442.823 6  21227445.174 6
        51.000          41.000
  23715196.962 4 124624223.916 4  97109800.86241  23715199.667 1  23715201.538 1
        33.000           6.000
  25554468.117 3 134289611.323 3 104641269.95641  25554470.697 1  25554477.106 1
        28.000           4.000
  22228971.445 8 116814047.269 8  91023934.62545  22228971.381 5  22228972.562 5
        50.000          37.000
  23813856.300 6 125142659.562 6  97513768.50241  23813854.418 1  23813857.583 1
        40.000          19.000
 13  1 30  0 28  0.0000000  0  8G25G02G12G29G04G24G31G14
  20172499.800 8 106007228.900 8  82603054.72746  20172499.343 6  20172503.930 6
        53.000          44.000
  22153808.379 8 116419072.596 8  90716181.85945  22153807.567 5  22153808.380 5
        50.000          36.000
  21509316.540 8 113032256.258 8  88077104.58046  21509316.360 6  21509318.038 6
        51.000          40.000
  21213786.097 8 111479222.581 8  86866942.02746  21213785.923 6  21213788.167 6
        51.000          41.000
  23730393.370 4 124704075.340 4  97172022.74341  23730391.434 1  23730396.240 1
        33.000           3.000
  25576907.739 3 134407537.942 3
        27.000
  22215864.920 7 116745172.901 7  90970266.28145  22215865.055 5  22215866.341 5
        48.000          37.000
  23831607.968 6 125235944.286 6  97586457.84741  23831608.484 1  23831610.517 1
        40.000          18.000
 13  1 30  0 28 30.0000000  0  8G25G02G12G29G04G24G31G14
  20174006.745 8 106015147.388 8  82609224.98546  20174006.272 6  20174010.883 6
        53.000          44.000
  22153245.814 7 116416116.204 7  90713878.18845  22153245.076 5  22153245.783 5
        49.000          36.000
  21523348.048 8 113105991.581 8  88134560.67046  21523347.652 6  21523349.343 6
        51.000          40.000
  21200207.244 8 111407866.465 8  86811339.87846  21200207.287 6  21200209.584 6
        51.000          41.000
  23745675.877 4 124784376.134 4  97234594.79141  23745676.103 1  23745675.882 1
        34.000           4.000
  25599348.620 3 134525456.710 3
        26.000
  22202837.427 7 116676713.357 7  90916921.18445  22202837.498 5  22202838.558 5
        48.000          37.000
  23849408.072 5 125329481.800 5  97659344.19741  23849407.382 1  23849409.444 1
        39.000          18.000
 13  1 30  0 29  0.0000000  0  7G25G02G12G29G04G31G14
  20175601.675 8 106023529.889 8  82615756.80346  20175601.282 6  20175605.918 6
        52.000          44.000
  22152790.800 7 116413726.015 7  90712015.70945  22152790.615 5  22152790.896 5
        49.000          36.000
  21537438.003 8 113180035.929 8  88192257.55846  21537438.064 6  21537439.649 6
        51.000          40.000
  21186707.261 8 111336922.966 8  86756059.23746  21186707.101 6  21186709.622 6
        51.000          41.000
  23761039.434 4 124865123.525 4  97297514.80341  23761041.471 1  23761040.925 1
        32.000           4.000
  22189889.419 7 116608670.473 7  90863900.75945  22189889.266 5  22189890.614 5
        49.000          37.000
  23867254.965 5 125423269.121 5  97732425.17941  23867254.559 1  23867255.843 1
        39.000          18.000
 13  1 30  0 29 30.0000000  0  8G25G02G12G29G04G31G10G14
  20177285.415 8 106032376.515 8  82622650.27046  20177284.829 6  20177289.382 6
        52.000          44.000
  22152443.998 7 116411901.959 7  90710594.37745  22152443.492 5  22152443.624 5
        48.000          36.000
  21551586.826 8 113254387.900 8  88250194.15946  21551586.772 5  21551588.293 6
        51.000          40.000
  21173285.836 7 111266393.835 7  86701101.48446  21173285.813 6  21173288.357 6
        49.000          41.000
  23776490.277 4 124946315.061 4  97360780.87341  23776492.887 1  23776494.497 1
        32.000           4.000
  22177020.808 7 116541046.419 7  90811206.68145  22177020.795 5  22177022.032 5
        48.000          37.000
  24927976.790 4 130997393.183 4
        33.000
  23885148.782 5 125517303.468 5  97805698.66441  23885147.737 1  23885151.010 1
        39.000          18.000
 13  1 30  0 30  0.0000000  0  8G25G02G12G29G04G31G10G14
  20179056.487 8 106041687.232 8  82629905.36846  20179056.518 6  20179061.227 6
        52.000          44.000
  22152203.964 7 116410644.013 7  90709614.16545  22152203.693 5  22152204.209 5
        49.000          36.000
  21565793.947 8 113329046.756 8  88308369.87646  21565793.976 5  21565795.312 6
        50.000          40.000
  21159943.596 8 111196280.047 8  86646467.36846  21159943.470 6  21159946.211 6
        52.000          41.000
  23792025.803 4 125027948.006 4  97424391.03541  23792020.494 1  23792028.870 1
        32.000           1.000
  22164232.832 7 116473843.577 7  90758840.83145  22164232.549 5  22164234.131 5
        49.000          37.000
  24914550.605 5 130926829.965 5
        37.000
  23903089.552 5 125611581.576 5  97879162.09941  23903089.167 1  23903092.112 1
        39.000          18.000
 13  1 30  0 30 30.0000000  0  8G25G02G12G29G04G31G10G14
  20180917.107 8 106051462.031 8  82637522.10146  20180916.661 6  20180921.299 6
        52.000          44.000
  22152072.528 8 116409952.367 8  90709075.22845  22152072.128 5  22152072.537 5
        50.000          36.000
  21580058.741 8 113404010.897 8  88366783.48346  21580058.955 6  21580060.531 6
        50.000          40.000
  21146680.775 8 111126583.057 8  86592158.04146  21146680.726 6  21146683.130 6
        50.000          41.000
  23807643.215 4 125110019.526 4  97488342.86941  23807640.423 1  23807642.364 1
        32.000           1.000
  22151524.127 7 116407064.076 7  90706804.85645  22151524.671 5  22151526.051 5
        47.000          37.000
  24901197.638 4 130856664.088 4
        34.000
  23921076.886 6 125706100.486 6  97952813.13741  23921075.367 1  23921077.949 1
        40.000          18.000
 13  1 30  0 31  0.0000000  0  8G25G02G12G29G04G31G10G14
  20182865.247 8 106061700.916 8  82645500.44946  20182864.972 6  20182869.650 6
        53.000          44.000
  22152048.654 7 116409827.165 7  90708977.67145  22152048.361 5  22152048.934 5
        48.000          36.000
  21594381.879 8 113479279.572 8  88425434.39346  21594382.112 5  21594383.852 6
        51.000          40.000
  21133497.410 8 111057304.034 8  86538174.39346  21133497.345 6  21133499.564 6
        52.000          41.000
  23823341.211 4 125192527.323 4
        30.000
  22138897.510 8 116340709.866 8  90655100.28445  22138897.892 5  22138898.872 5
        50.000          37.000
  24887922.131 5 130786898.057 5
        38.000
  23939107.316 6 125800856.958 6  98026649.29941  23939107.742 1  23939111.589 1
        40.000          18.000
 13  1 30  0 31 30.0000000  0  8G25G02G12G29G04G31G10G14
  20184902.102 8 106072403.848 8  82653840.39446  20184901.639 6  20184906.447 6
        53.000          44.000
  22152132.913 7 116410268.584 7  90709321.63945  22152132.286 5  22152132.793 5
        48.000          36.000
  21608762.971 8 113554851.566 8  88484321.65645  21608762.975 5  21608764.537 5
        51.000          39.000
  21120393.916 8 110988444.235 8  86484517.41146  21120393.864 6  21120396.009 6
        51.000          41.000
  23839121.869 4 125275468.339 4
        30.000
  22126352.705 7 116274783.001 7  90603728.70345  22126352.829 5  22126353.782 5
        49.000          37.000
  24874722.444 5 130717534.856 5
        37.000
  23957183.569 5 125895848.510 5  98100668.66241  23957183.792 1  23957185.728 1
        39.000          18.000
 13  1 30  0 32  0.0000000  0  8G25G02G12G29G04G31G10G14
  20187026.671 8 106083570.796 8  82662541.90246  20187026.617 6  20187031.475 6
        53.000          44.000
  22152324.592 7 116411276.385 7  90710106.93845  22152324.150 5  22152324.637 5
        48.000          36.000
  21623201.546 8 113630725.353 8  88543444.07446  21623201.352 6  21623202.855 6
        50.000          40.000
  21107370.232 8 110920005.205 8  86431188.30946  21107370.369 6  21107372.490 6
        52.000          41.000
  23854991.656 4 125358839.102 4
        31.000
  22113889.005 8 116209285.753 8  90552691.88045  22113889.058 5  22113890.228 5
        50.000          37.000
  24861598.906 5 130648577.472 5
        38.000
  23975303.723 5 125991071.282 5  98174868.19141  23975304.140 1  23975306.045 1
        38.000          18.000
 13  1 30  0 32 30.0000000  0  8G25G02G12G29G04G31G10G14
  20189240.440 8 106095201.737 8  82671604.96647  20189240.002 7  20189244.714 7
        52.000          45.000
  22152625.179 7 116412850.770 7  90711333.73545  22152624.141 5  22152624.018 5
        49.000          36.000
  21637696.974 8 113706899.805 8  88602800.78545  21637696.876 5  21637698.285 5
        50.000          39.000
  21094427.015 8 110851988.293 8  86378188.13746  21094427.039 6  21094429.221 6
        51.000          41.000
  23870936.769 4 125442638.670 4
        31.000
  22101507.400 7 116144220.473 7  90501991.67045  22101507.546 5  22101508.530 5
        49.000          37.000
  24848555.819 5 130580028.538 5
        38.000
  23993468.826 6 126086522.500 6  98249245.70641  23993468.699 1  23993470.132 1
        40.000          19.000
 13  1 30  0 33  0.0000000  0  8G25G02G12G29G04G31G10G14
  20191541.733 8 106107296.604 8  82681029.53346  20191541.598 7  20191546.284 6
        53.000          44.000
  22153032.080 7 116414991.474 7  90713001.81145  22153031.702 5  22153031.689 5
        49.000          36.000
  21652249.466 8 113783373.840 8  88662390.92445  21652249.545 5  21652251.129 5
        50.000          39.000
  21081564.563 8 110784394.743 8  86325517.84246  21081564.471 6  21081566.577 6
        51.000          42.000
  23886964.029 3 125526863.555 3
        28.000
  22089208.385 7 116079588.771 7  90451629.30045  22089208.397 5  22089209.376 5
        49.000          37.000
  24835587.728 5 130511891.207 5
        37.000
  24011675.096 6 126182199.435 6  98323799.11441  24011673.986 1  24011676.492 1
        40.000          18.000
 13  1 30  0 33 30.0000000  0  8G25G02G12G29G04G31G10G14
  20193932.245 8 106119855.360 8  82690815.57646  20193931.607 6  20193936.053 6
        53.000          44.000
  22153546.819 7 116417698.745 7  90715111.37845  22153546.205 5  22153546.622 5
        49.000          36.000
  21666859.113 8 113860146.629 8  88722213.86845  21666858.760 5  21666860.433 5
        51.000          39.000
  21068782.821 8 110717225.577 8  86273178.25046  21068782.573 6  21068784.776 6
        51.000          41.000
  23903075.293 5 125611510.843 5
        36.000
  22076992.855 8 116015393.348 8  90401606.89045  22076992.617 5  22076993.728 5
        50.000          38.000
  24822702.711 5 130444168.271 5 101644833.30541  24822701.312 1  24822710.074 1
        37.000          11.000
  24029923.495 5 126278098.698 5  98398525.78141  24029923.397 1  24029925.590 1
        39.000          18.000
 13  1 30  0 34  0.0000000  0  8G25G02G12G29G04G31G10G14
  20196409.740 8 106132877.910 8  82700963.01646  20196409.531 6  20196414.100 6
        53.000          44.000
  22154169.242 7 116420972.420 7  90717662.30345  22154168.932 5  22154170.042 5
        49.000          36.000
  21681524.892 8 113937216.407 8  88782268.22645  21681524.606 5  21681526.338 5
        50.000          39.000
  21056081.712 8 110650482.127 8  86221170.38646  21056081.666 6  21056083.992 6
        52.000          41.000
  23919260.325 4 125696577.911 4
        34.000
  22064859.884 7 115951636.001 7  90351925.83345  22064859.950 5  22064861.075 5
        49.000          38.000
  24809892.883 5 130376862.271 5 101592387.13641  24809892.562 1  24809895.949 1
        37.000          12.000
  24048215.060 5 126374217.308 5  98473423.35841  24048213.001 1  24048216.476 1
        39.000          18.000
 13  1 30  0 34 30.0000000  0  8G25G02G12G29G04G31G10G14
  20198976.054 8 106146364.190 8  82711471.80746  20198976.027 6  20198980.632 6
        53.000          44.000
  22154900.745 7 116424812.583 7  90720654.65445  22154899.962 5  22154900.302 5
        49.000          36.000
  21696246.834 8 114014582.210 8  88842553.26345  21696246.944 5  21696248.313 5
        51.000          39.000
  21043461.721 8 110584165.651 8  86169495.22446  21043461.947 6  21043464.360 6
        51.000          42.000
  23935527.892 5 125782062.089 5
        37.000
  22052810.802 7 115888318.740 7  90302587.71545  22052810.892 5  22052812.227 5
        49.000          38.000
  24797166.134 5 130309976.229 5 101540268.17141  24797163.240 1  24797168.178 1
        37.000          11.000
  24066546.769 5 126470552.176 5  98548489.45741  24066547.298 1  24066548.034 1
        39.000          18.000
 13  1 30  0 35  0.0000000  0  8G25G02G12G29G04G31G10G14
  20201630.468 8 106160314.104 8  82722341.86547  20201630.450 6  20201635.296 7
        53.000          45.000
  22155739.232 7 116429218.827 7  90724088.08945  22155738.794 5  22155739.236 5
        48.000          36.000
  21711025.085 8 114092242.844 8  88903068.02845  21711025.248 5  21711026.692 5
        51.000          39.000
  21030923.876 8 110518277.251 8  86118153.62446  21030923.908 6  21030926.232 6
        51.000          42.000
  23951875.850 4 125867960.538 4
        33.000
  22040846.445 8 115825443.835 8  90253594.28645  22040846.240 5  22040847.677 5
        50.000          38.000
  24784517.569 5 130243512.903 5 101488478.64441  24784516.263 1  24784520.053 1
        38.000          13.000
  24084919.540 5 126567099.997 5  98623721.49041  24084919.437 1  24084920.820 1
        39.000          18.000
 13  1 30  0 35 30.0000000  0  8G25G02G12G29G04G31G10G14
  20204373.806 8 106174727.582 8  82733573.14546  20204373.339 6  20204377.869 6
        52.000          44.000
  22156685.067 7 116434191.639 7  90727963.01645  22156684.532 5  22156685.154 5
        46.000          36.000
  21725859.881 8 114170196.787 8  88963811.35145  21725859.482 5  21725860.793 5
        51.000          39.000
  21018467.312 8 110452818.582 8  86067146.88446  21018467.476 6  21018469.883 6
        50.000          41.000
  23968296.121 4 125954270.538 4
        31.000
  22028966.062 7 115763013.043 7  90204946.91245  22028965.950 5  22028967.224 5
        49.000          38.000
  24771950.553 6 130177474.892 6 101437020.46241  24771949.949 1  24771953.131 1
        40.000          14.000
  24103331.286 5 126663858.131 5  98699117.39141  24103330.984 1  24103332.870 1
        39.000          18.000
 13  1 30  0 36  0.0000000  0  8G25G02G12G29G04G31G10G14
  20207204.545 8 106189604.487 8  82745165.53446  20207204.242 6  20207208.865 6
        54.000          44.000
  22157739.571 7 116439730.013 7  90732278.63945  22157738.914 5  22157738.815 5
        49.000          36.000
  21740749.043 8 114248443.264 8  89024782.61745  21740748.877 5  21740750.741 5
        50.000          39.000
  21006093.213 8 110387790.410 8  86016475.58546  21006093.104 6  21006095.460 6
        52.000          42.000
  23984799.375 3 126040988.108 3
        26.000
  22017170.803 8 115701028.670 8  90156647.39745  22017170.884 5  22017171.719 5
        50.000          38.000
  24759466.218 5 130111865.010 5 101385895.90341  24759464.897 1  24759468.551 1
        39.000          16.000
  24121783.554 5 126760823.314 5  98774674.65941  24121783.015 1  24121786.145 1
        39.000          17.000
 13  1 30  0 36 30.0000000  0  8G25G02G12G29G04G31G10G14
  20210124.099 8 106204944.775 8  82757119.00446  20210123.588 6  20210128.043 6
        53.000          44.000
  22158901.307 7 116445834.412 7  90737035.31745  22158900.505 5  22158900.738 5
        49.000          36.000
  21755694.472 7 114326981.124 7  89085980.93745  21755694.649 5  21755695.816 5
        49.000          39.000
  20993800.337 8 110323194.004 8  85966140.73446  20993800.698 6  20993803.135 6
        50.000          42.000
  24001378.774 4 126128112.923 4
        30.000
  22005461.207 7 115639492.926 7  90108697.46445  22005460.964 5  22005462.082 5
        49.000          38.000
  24747063.087 6 130046686.370 6 101335107.36541  24747061.687 1  24747064.454 1
        41.000          14.000
  24140272.253 5 126857992.482 5  98850390.85341  24140273.650 1  24140275.865 1
        37.000          17.000
 13  1 30  0 37  0.0000000  0  8G25G02G12G29G04G31G10G14
  20213131.112 8 106220748.236 8  82769433.38846  20213130.729 6  20213135.294 6
        52.000          44.000
  22160170.348 7 116452504.288 7  90742232.63745  22160169.471 5  22160169.977 5
        48.000          36.000
  21770694.893 8 114405808.638 8  89147404.96545  21770694.896 5  21770696.326 5
        50.000          39.000
  20981590.772 8 110259030.628 8  85916143.30346  20981590.957 6  20981593.330 6
        51.000          42.000
  24018033.289 3 126215640.765 3
        29.000
  21993837.006 8 115578407.657 8  90061098.55445  21993836.735 5  21993837.896 5
        50.000          38.000
  24734742.143 6 129981941.594 6 101284656.87141  24734741.034 1  24734742.523 1
        40.000          14.000
  24158802.005 5 126955362.452 5  98926263.52341  24158802.724 1  24158806.139 1
        38.000          18.000
 13  1 30  0 37 30.0000000  0  8G25G02G12G29G04G31G10G14
  20216226.240 8 106237014.801 8  82782108.63546  20216226.138 6  20216230.683 6
        52.000          44.000
  22161546.899 7 116459739.682 7  90747870.62145  22161546.181 5  22161546.638 5
        48.000          36.000
  21785750.369 8 114484924.964 8  89209054.03145  21785750.294 5  21785751.909 5
        50.000          39.000
  20969463.733 8 110195301.362 8  85866484.14046  20969463.704 6  20969466.017 6
        51.000          42.000
  24034766.510 3 126303568.911 3
        28.000
  21982298.515 7 115517774.925 7  90013852.26945  21982298.835 5  21982299.912 5
        48.000          38.000
  24722506.008 5 129917633.321 5 101234546.56541  24722505.095 1  24722506.869 1
        39.000          13.000
  24177369.593 5 127052930.224 5  99002290.31041  24177368.651 1  24177372.519 1
        38.000          16.000
 13  1 30  0 38  0.0000000  0  8G25G02G12G29G04G31G10G14
  20219409.996 8 106253744.271 8  82795144.58346  20219409.657 6  20219414.239 6
        54.000          44.000
  22163031.596 8 116467540.375 8  90753949.07745  22163031.156 5  22163031.309 5
        51.000          36.000
  21800860.280 8 114564329.014 8  89270927.30645  21800860.260 5  21800862.205 5
        50.000          39.000
  20957419.171 8 110132007.635 8  85817164.35946  20957419.303 6  20957421.335 6
        50.000          42.000
  24051574.011 4 126391895.074 4
        32.000
  21970846.941 8 115457596.781 8  89966960.20945  21970847.433 5  21970848.200 5
        51.000          38.000
  24710350.091 5 129853764.331 5 101184778.53541  24710350.045 1  24710353.632 1
        36.000          15.000
  24195972.646 5 127150692.885 5  99078468.97641  24195971.394 1  24195975.921 1
        38.000          16.000
 13  1 30  0 38 30.0000000  0  8G25G02G12G29G04G31G10G14
  20222681.476 8 106270936.552 8  82808541.16546  20222681.149 6  20222685.844 6
        52.000          44.000
  22164623.550 7 116475906.060 7  90760467.80145  22164622.942 5  22164623.110 5
        49.000          36.000
  21816025.061 7 114644019.572 7  89333023.82945  21816024.962 5  21816026.195 5
        49.000          38.000
  20945457.638 8 110069150.360 8  85768184.66946  20945457.886 6  20945459.938 6
        50.000          42.000
  24068458.876 4 126480615.933 4
        30.000
  21959482.444 7 115397875.283 7  89920423.97545  21959482.701 5  21959483.422 5
        49.000          38.000
  24698279.440 5 129790337.347 5 101135354.97741  24698278.706 1  24698283.338 1
        35.000          13.000
  24214612.878 5 127248647.347 5  99154797.08241  24214613.419 1  24214616.025 1
        37.000          17.000
 13  1 30  0 39  0.0000000  0  8G25G02G12G29G04G31G10G14
  20226041.078 8 106288591.457 8  82822298.23246  20226040.858 6  20226045.356 6
        53.000          44.000
  22166322.510 7 116484836.305 7  90767426.43545  22166322.116 5  22166322.631 5
        49.000          36.000
  21831243.934 8 114723994.996 8  89395342.32545  21831243.732 5  21831245.392 5
        50.000          39.000
  20933579.651 8 110006730.845 8  85719546.09446  20933579.770 6  20933581.918 6
        52.000          42.000
  24085417.887 3 126569728.779 3
        29.000
  21948204.882 8 115338612.624 8  89874245.28245  21948205.527 5  21948206.455 5
        51.000          38.000
  24686294.869 5 129727354.806 5 101086277.67041  24686294.135 1  24686300.475 1
        36.000          13.000
  24233289.776 5 127346790.324 5  99231272.09641  24233288.991 1  24233290.463 1
        37.000          15.000
 13  1 30  0 39 30.0000000  0  8G25G02G12G29G04G31G10G14
  20229488.758 8 106306708.850 8  82836415.68346  20229488.537 6  20229492.986 6
        52.000          44.000
  22168129.434 7 116494331.188 7  90774825.05045  22168128.917 5  22168129.410 5
        48.000          36.000
  21846516.435 7 114804254.136 7  89457881.90445  21846516.662 5  21846518.128 5
        49.000          38.000
  20921785.399 8 109944750.064 8  85671249.38946  20921785.388 6  20921787.359 6
        52.000          42.000
  24102442.739 4 126659231.017 4
        30.000
  21937015.194 8 115279810.588 8  89828425.51845  21937015.653 5  21937016.737 5
        51.000          39.000
  24674395.976 5 129664819.611 5 101037548.99241  24674394.061 1  24674399.450 1
        38.000          16.000
  24251999.915 5 127445118.936 5  99307891.74341  24251998.038 1  24252003.048 1
        37.000          15.000
 13  1 30  0 40  0.0000000  0  8G25G02G12G29G04G31G10G14
  20233024.781 8 106325288.494 8  82850893.32646  20233024.087 6  20233028.627 6
        54.000          44.000
  22170043.339 8 116504390.106 8  90782663.16845  22170043.035 5  22170043.275 5
        50.000          35.000
  21861843.153 8 114884796.132 8  89520641.88245  21861843.350 5  21861844.665 5
        50.000          38.000
  20910074.378 8 109883209.239 8  85623295.49846  20910074.383 6  20910076.548 6
        52.000          42.000
  24119552.507 4 126749119.919 4
        31.000
  21925913.931 8 115221471.015 8  89782966.10945  21925913.977 5  21925914.924 5
        51.000          38.000
  24662580.189 5 129602734.748 5 100989171.22041  24662578.896 1  24662584.866 1
        35.000          16.000
  24270747.991 5 127543629.657 5  99384653.30441  24270745.940 1  24270748.530 1
        38.000          16.000
 13  1 30  0 40 30.0000000  0  8G25G02G12G29G04G31G10G14
  20236647.777 8 106344330.285 8  82865731.08746  20236647.615 6  20236652.169 6
        52.000          44.000
  22172064.954 7 116515013.000 7  90790940.75545  22172064.289 5  22172065.019 5
        49.000          35.000
  21877223.885 8 114965619.815 8  89583621.36045  21877223.499 5  21877224.824 5
        50.000          37.000
  20898447.575 8 109822109.509 8  85575685.32946  20898447.625 6  20898449.665 6
        52.000          42.000
  24136731.940 4 126839392.451 4
        33.000
  21914900.790 7 115163596.108 7  89737868.77245  21914900.481 5  21914901.608 5
        49.000          38.000
  24650853.668 5 129541102.568 5 100941146.23941  24650852.313 1  24650855.513 1
        38.000          16.000
  24289527.478 5 127642319.921 5  99461554.77441  24289527.483 1  24289528.696 1
        38.000          15.000
 13  1 30  0 41  0.0000000  0  8G25G02G12G29G04G31G10G14
  20240359.421 8 106363833.952 8  82880928.74646  20240359.077 6  20240363.744 6
        53.000          44.000
  22174193.565 7 116526199.364 7  90799657.41545  22174193.171 5  22174193.561 5
        49.000          36.000
  21892656.815 7 115046723.731 7  89646819.21245  21892656.761 5  21892658.288 5
        49.000          38.000
  20886904.795 8 109761451.669 8  85528419.47746  20886904.754 6  20886906.929 6
        52.000          42.000
  24153983.695 5 126930045.586 5
        35.000
  21903975.568 8 115106187.885 8  89693135.08545  21903976.252 5  21903977.334 5
        51.000          39.000
  24639212.754 5 129479925.516 5 100893475.80841  24639210.857 1  24639213.741 1
        38.000          17.000
  24308341.939 5 127741186.561 5  99538593.66841  24308340.216 1  24308343.048 1
        38.000          15.000
 13  1 30  0 41 30.0000000  0  8G25G02G12G29G04G31G10G14
  20244158.730 8 106383799.365 8  82896486.20846  20244158.331 6  20244163.041 6
        53.000          44.000
  22176429.305 7 116537948.967 7  90808812.95045  22176428.969 5  22176429.426 5
        49.000          36.000
  21908143.405 7 115128106.640 7  89710234.44845  21908143.619 5  21908145.222 5
        49.000          38.000
  20875446.356 8 109701237.234 8  85481499.14546  20875446.515 6  20875448.442 6
        52.000          42.000
  24171306.331 4 127021077.227 4
        32.000
  21893141.045 8 115049248.322 8  89648766.59645  21893141.227 5  21893142.307 5
        51.000          39.000
  24627655.109 5 129419206.583 5 100846162.37841  24627655.243 1  24627659.397 1
        37.000          17.000
  24327185.487 5 127840226.406 5  99615767.54541  24327186.594 1  24327190.410 1
        37.000          15.000
 13  1 30  0 42  0.0000000  0  8G25G02G12G29G04G31G10G14
  20248045.781 8 106404226.219 8  82912403.23546  20248045.473 6  20248050.164 6
        53.000          44.000
  22178772.671 7 116550261.166 7  90818406.87045  22178771.987 5  22178772.288 5
        49.000          36.000
  21923682.217 8 115209767.089 8  89773865.95245  21923682.988 5  21923684.730 5
        50.000          37.000
  20864072.543 8 109641466.918 8  85434924.87946  20864072.547 6  20864074.639 6
        52.000          42.000
  24188698.576 4 127112484.109 4
        31.000
  21882395.158 8 114992779.188 8  89604764.67445  21882395.628 5  21882396.511 5
        51.000          39.000
  24616190.920 5 129358948.227 5 100799207.80141  24616189.872 1  24616190.537 1
        38.000          17.000
  24346064.570 5 127939436.305 5  99693073.88141  24346065.874 1  24346069.160 1
        36.000          14.000
 13  1 30  0 42 30.0000000  0  8G25G02G12G29G04G31G10G14
  20252020.732 8 106425114.400 8  82928679.73346  20252020.290 6  20252025.058 6
        54.000          44.000
  22181222.468 7 116563135.677 7  90828438.96945  22181221.908 5  22181222.325 5
        48.000          36.000
  21939275.150 7 115291704.334 7  89837713.15045  21939275.454 5  21939276.941 5
        49.000          38.000
  20852783.613 8 109582141.858 8  85388697.57246  20852783.319 6  20852785.442 6
        50.000          42.000
  24206164.105 4 127204263.153 4
        30.000
  21871739.740 7 114936782.644 7  89561131.00145  21871739.495 5  21871740.499 5
        48.000          39.000
  24604812.841 5 129299153.074 5 100752614.24141  24604811.156 1  24604813.701 1
        38.000          15.000
  24364976.832 5 128038813.452 5  99770510.59541  24364975.844 1  24364978.624 1
        36.000          14.000
 13  1 30  0 43  0.0000000  0  8G25G02G12G29G04G31G10G14
  20256083.148 8 106446463.572 8  82945315.44746  20256082.944 6  20256087.690 6
        52.000          44.000
  22183779.850 7 116576572.039 7  90838908.86445  22183779.368 5  22183779.160 5
        48.000          36.000
  21954920.140 7 115373916.919 7  89901774.88945  21954919.866 5  21954921.667 5
        49.000          37.000
  20841579.052 8 109523263.368 8  85342818.23346  20841578.861 6  20841581.143 6
        52.000          42.000
  24223697.997 4 127296411.967 4
        31.000
  21861174.274 8 114881260.562 8  89517867.03845  21861174.324 5  21861175.063 5
        51.000          39.000
  24593521.251 5 129239823.838 5 100706383.71241  24593519.209 1  24593523.227 1
        35.000          15.000
  24383919.235 5 128138354.744 5  99848075.16441  24383919.923 1  24383922.929 1
        37.000          15.000
 13  1 30  0 43 30.0000000  0  8G25G02G12G29G04G31G10G14
  20260233.443 8 106468273.589 8  82962310.26746  20260233.242 6  20260237.822 6
        53.000          44.000
  22186443.261 7 116590569.981 7  90849816.35345  22186442.557 5  22186442.783 5
        48.000          35.000
  21970616.811 7 115456403.818 7  89966050.38145  21970616.602 5  21970618.184 5
        49.000          38.000
  20830460.018 8 109464832.491 8  85297287.68846  20830459.964 6  20830462.193 6
        51.000          42.000
  24241304.479 4 127388927.408 4
        31.000
  21850699.781 8 114826214.773 8  89474974.21645  21850699.432 5  21850700.446 5
        50.000          39.000
  24582321.386 5 129180962.960 5 100660518.12541  24582319.945 1  24582323.417 1
        36.000          15.000
  24402891.814 5 128238057.164 5  99925765.38141  24402891.097 1  24402895.622 1
        36.000          14.000
 13  1 30  0 44  0.0000000  0  8G25G02G12G29G04G31G10G14
  20264471.722 8 106490544.124 8  82979663.92546  20264471.191 6  20264475.791 6
        52.000          44.000
  22189213.495 7 116605128.718 7  90861160.83145  22189212.958 5  22189213.277 5
        48.000          36.000
  21986364.993 7 115539163.367 7  90030538.32545  21986365.055 5  21986366.838 5
        49.000          37.000
  20819425.917 8 109406850.119 8  85252106.62646  20819426.215 6  20819428.288 6
        51.000          42.000
  24258978.542 4 127481792.533 4
        32.000
  21840315.055 8 114771647.151 8  89432453.99046  21840315.272 5  21840316.613 6
        50.000          40.000
  24571208.149 5 129122572.767 5 100615019.32441  24571208.243 1  24571210.963 1
        37.000          15.000
  24421894.383 5 128337917.334 5 100003578.42841  24421895.192 1  24421898.754 1
        36.000          14.000
 13  1 30  0 44 30.0000000  0  8G25G02G12G29G04G31G10G14
  20268796.933 8 106513274.964 8  82997376.26746  20268796.771 6  20268801.347 6
        51.000          44.000
  22192091.064 7 116620248.138 7  90872942.20445  22192090.258 5  22192090.474 5
        47.000          36.000
  22002165.069 7 115622194.627 7  90095237.99745  22002165.360 5  22002167.175 5
        49.000          37.000
  20808478.139 8 109349317.258 8  85207275.83946  20808478.084 6  20808480.170 6
        51.000          42.000
  24276722.512 4 127575033.084 4
        31.000
  21830022.452 8 114717559.839 8  89390308.03045  21830022.826 5  21830024.259 5
        51.000          39.000
  24560187.634 5 129064656.087 5 100569889.48641  24560187.915 1  24560192.018 1
        37.000          14.000
  24440928.094 5 128437932.400 5 100081512.20541  24440925.451 1  24440929.558 1
        36.000          14.000
 13  1 30  0 45  0.0000000  0  8G25G02G12G29G04G31G10G14
  20273210.341 8 106536465.820 8  83015447.05446  20273209.815 6  20273214.361 6
        52.000          44.000
  22195074.441 7 116635927.540 7  90885159.92245  22195073.909 5  22195074.278 5
        49.000          36.000
  22018016.890 8 115705496.168 8  90160148.26745  22018017.170 5  22018018.975 5
        50.000          37.000
  20797615.847 8 109292235.003 8  85162796.16546  20797615.571 6  20797617.798 6
        51.000          42.000
  24294530.852 3 127668630.872 3
        28.000
  21819821.913 8 114663954.873 8  89348537.92845  21819822.106 5  21819823.302 5
        50.000          39.000
  24549257.712 5 129007215.538 5 100525130.60141  24549257.058 1  24549260.864 1
        37.000          15.000
  24459988.215 5 128538099.001 5 100159564.02941  24459986.658 1  24459991.236 1
        36.000          14.000
 13  1 30  0 45 30.0000000  0  9G25G02G12G29G04G30G31G10G14
  20277710.623 8 106560116.462 8  83033876.12746  20277710.395 6  20277714.959 6
        52.000          44.000
  22198164.701 8 116652166.314 8  90897813.52545  22198164.194 5  22198164.160 5
        50.000          36.000
  22033921.144 7 115789067.019 7  90225268.39945  22033920.508 5  22033921.690 5
        49.000          37.000
  20786838.980 8 109235604.196 8  85118668.27346  20786839.214 6  20786841.242 6
        51.000          42.000
  24312410.160 4 127762581.095 4
        31.000
  25079197.846 4 131792073.940 4
        32.000
  21809713.385 8 114610833.822 8  89307144.89946  21809713.817 5  21809714.840 6
        52.000          40.000
  24538418.533 5 128950253.685 5 100480744.79241  24538416.936 1  24538420.847 1
        36.000          15.000
  24479078.583 5 128638414.350 5 100237731.77041  24479076.031 1  24479079.468 1
        38.000          14.000
 13  1 30  0 46  0.0000000  0  9G25G02G12G29G04G30G31G10G14
  20282298.764 8 106584226.520 8  83052663.18246  20282298.448 6  20282303.162 6
        53.000          44.000
  22201361.622 8 116668964.057 8  90910902.67445  22201360.702 5  22201360.969 5
        50.000          36.000
  22049874.662 8 115872905.839 8  90290597.32945  22049874.415 5  22049876.065 5
        50.000          37.000
  20776148.955 8 109179425.853 8  85074892.94346  20776148.900 6  20776150.862 6
        51.000          42.000
  24330357.028 4 127856887.826 4
        32.000
  25057350.309 4 131677262.676 4
        32.000
  21799698.090 8 114558198.582 8  89266130.42445  21799697.563 5  21799698.694 5
        52.000          39.000
  24527668.648 4 128893772.957 4 100436733.83041  24527670.465 1  24527672.524 1
        33.000          12.000
  24498194.220 5 128738875.413 5 100316013.08241  24498195.021 1  24498197.563 1
        37.000          14.000
 13  1 30  0 46 30.0000000  0  9G25G02G12G29G04G30G31G10G14
  20286974.078 8 106608795.791 8  83071808.07346  20286973.809 6  20286978.393 6
        53.000          44.000
  22204663.551 7 116686320.076 7  90924426.84945  22204663.146 5  22204663.519 5
        49.000          35.000
  22065878.973 7 115957011.196 7  90356133.95745  22065878.944 5  22065880.813 5
        49.000          37.000
  20765544.795 8 109123701.028 8  85031471.01746  20765544.880 6  20765546.728 6
        51.000          42.000
  24348369.190 4 127951544.341 4
        32.000
  25035508.010 4 131562481.703 4
        32.000
  21789774.179 8 114506051.152 8  89225496.07146  21789774.238 5  21789775.545 6
        51.000          40.000
  24517013.995 5 128837775.692 5 100393099.62641  24517013.311 1  24517016.742 1
        36.000          13.000
  24517339.508 5 128839479.251 5 100394405.65341  24517337.941 1  24517342.693 1
        36.000          13.000
 13  1 30  0 47  0.0000000  0  9G25G02G12G29G04G30G31G10G14
  20291736.743 8 106633823.912 8  83091310.50246  20291736.444 6  20291741.175 6
        53.000          44.000
  22208072.323 7 116704233.859 7  90938385.65545  22208072.178 5  22208072.389 5
        49.000          36.000
  22081933.919 7 116041382.064 7  90421877.47745  22081934.184 5  22081936.217 5
        49.000          37.000
  20755027.264 8 109068430.893 8  84988403.38746  20755027.162 6  20755029.396 6
        52.000          43.000
  24366449.279 5 128046547.619 5
        35.000
  25013669.529 4 131447732.509 4
        33.000
  21779943.897 8 114454393.272 8  89185243.17646  21779944.092 6  21779945.159 6
        52.000          40.000
  24506451.022 5 128782264.346 5 100349844.07841  24506450.900 1  24506451.908 1
        36.000          12.000
  24536510.612 5 128940222.553 5 100472906.84541  24536508.746 1  24536511.190 1
        37.000          13.000
 13  1 30  0 47 30.0000000  0  9G25G02G12G29G04G30G31G10G14
  20296586.574 8 106659310.608 8  83111170.25946  20296586.363 6  20296590.968 6
        52.000          44.000
  22211587.386 7 116722704.904 7  90952778.67845  22211587.094 5  22211587.281 5
        48.000          36.000
  22098039.648 7 116126017.808 7  90487827.39245  22098039.655 5  22098041.353 5
        48.000          36.000
  20744596.625 8 109013616.019 8  84945690.51146  20744596.364 6  20744598.555 6
        52.000          42.000
  24384592.350 5 128141895.210 5
        38.000
  24991842.756 4 131333016.755 4
        34.000
  21770207.860 8 114403226.718 8  89145373.13945  21770207.452 5  21770208.443 5
        51.000          39.000
  24495979.256 5 128727241.639 5 100306969.27141  24495978.267 1  24495982.705 1
        36.000          13.000
  24555708.079 5 129041102.301 5 100551514.36741  24555706.862 1  24555709.445 1
        37.000          14.000
 13  1 30  0 48  0.0000000  0  9G25G02G12G29G04G30G31G10G14
  20301523.867 8 106685255.500 8  83131387.05446  20301523.539 6  20301528.320 6
        53.000          44.000
  22215208.627 8 116741732.427 8  90967605.32345  22215207.981 5  22215207.829 5
        50.000          36.000
  22114195.925 8 116210916.333 8  90553982.07345  22114195.854 5  22114197.363 5
        50.000          37.000
  20734252.365 8 108959257.431 8  84903333.17546  20734252.221 6  20734254.497 6
        53.000          43.000
  24402801.393 5 128237583.802 5  99925407.16941  24402800.084 1  24402803.941 1
        38.000          11.000
  24970018.049 5 131218335.647 5
        35.000
  21760564.563 8 114352553.430 8  89105887.45446  21760564.580 6  21760565.431 6
        52.000          40.000
  24485604.251 5 128672709.999 5 100264477.13141  24485603.971 1  24485604.868 1
        38.000          16.000
  24574929.539 5 129142115.379 5 100630225.81541  24574929.697 1  24574932.312 1
        36.000          14.000
 13  1 30  0 48 30.0000000  0 10G25G02G12G29G04G30G31G10G14G23
  20306548.233 8 106711658.325 8  83151960.67546  20306547.978 6  20306552.528 6
        52.000          44.000
  22218934.768 7 116761315.887 7  90982865.17345  22218934.506 5  22218934.581 5
        49.000          36.000
  22130401.009 7 116296076.781 7  90620340.84545  22130401.006 5  22130403.004 5
        49.000          36.000
  20723995.002 8 108905356.203 8  84861332.23146  20723995.019 6  20723997.322 6
        51.000          42.000
  24421072.681 5 128333610.582 5 100000233.20541  24421073.595 1  24421075.976 1
        38.000          13.000
  24948202.970 5 131103690.938 5
        36.000
  21751015.396 8 114302375.349 8  89066787.65746  21751015.998 5  21751017.215 6
        50.000          40.000
  24475318.788 5 128618671.849 5 100222369.46041  24475319.258 1  24475322.645 1
        36.000          15.000
  24594176.353 5 129243259.114 5 100709039.05241  24594176.472 1  24594180.246 1
        37.000          13.000
  25328208.225 4 133100650.909 4
        34.000
 13  1 30  0 49  0.0000000  0 10G25G02G12G29G04G30G31G10G14G23
  20311659.628 8 106738518.699 8  83172890.83146  20311659.224 6  20311663.780 6
        53.000          44.000
  22222767.214 7 116781454.418 7  90998557.53445  22222766.554 5  22222766.676 5
        49.000          36.000
  22146656.032 7 116381497.600 7  90686902.49845  22146656.085 5  22146658.228 5
        48.000          37.000
  20713825.201 8 108851912.884 8  84819688.08946  20713825.173 6  20713827.365 6
        52.000          43.000
  24439410.714 5 128429972.900 5 100075320.65541  24439410.551 1  24439413.733 1
        38.000          14.000
  24926394.178 5 130989084.195 5
        35.000
  21741562.074 8 114252694.174 8  89028075.04846  21741562.022 6  21741562.865 6
        51.000          40.000
  24465131.583 5 128565129.068 5 100180647.80441  24465130.724 1  24465134.583 1
        37.000          15.000
  24613447.640 5 129344529.929 5 100787951.30241  24613445.429 1  24613450.450 1
        36.000          14.000
  25314429.699 5 133028242.659 5
        36.000
 13  1 30  0 49 30.0000000  0 10G25G02G12G29G04G30G31G10G14G23
  20316857.828 8 106765836.286 8  83194177.26446  20316857.615 6  20316862.205 6
        52.000          43.000
  22226704.837 7 116802147.577 7  91014682.08745  22226704.412 5  22226704.577 5
        49.000          36.000
  22162960.635 7 116467177.721 7  90753666.21645  22162960.515 5  22162962.434 5
        48.000          36.000
  20703742.418 8 108798929.048 8  84778401.99446  20703742.822 6  20703744.930 6
        52.000          43.000
  24457811.179 5 128526667.813 5 100150667.33641  24457812.002 1  24457815.736 1
        38.000          15.000
  24904592.192 5 130874516.731 5
        36.000
  21732202.485 7 114203511.819 7  88989751.13546  21732202.828 6  21732204.010 6
        49.000          40.000
  24455037.038 4 128512084.684 4 100139314.56441  24455035.384 1  24455040.056 1
        34.000          15.000
  24632743.639 5 129445925.152 5 100866960.43941  24632742.409 1  24632745.876 1
        37.000          13.000
  25300728.860 5 132956241.679 5
        36.000
 13  1 30  0 50  0.0000000  0 10G25G02G12G29G04G30G31G10G14G23
  20322143.078 8 106793610.723 8  83215819.67846  20322142.834 6  20322147.425 6
        53.000          44.000
  22230748.424 7 116823394.610 7  91031238.22045  22230747.782 5  22230747.837 5
        49.000          36.000
  22179313.793 7 116553116.017 7  90820631.09745  22179313.886 5  22179316.019 5
        49.000          37.000
  20693747.683 8 108746405.176 8  84737474.31246  20693747.912 6  20693749.824 6
        51.000          42.000
  24476275.894 5 128623692.537 5 100226271.02041  24476274.014 1  24476279.569 1
        37.000          14.000
  24882799.734 5 130759990.326 5
        36.000
  21722938.700 7 114154829.787 7  88951817.08346  21722939.017 6  21722939.975 6
        49.000          40.000
  24445038.727 5 128459540.828 5 100098371.28541  24445038.178 1  24445042.357 1
        38.000          17.000
  24652058.352 5 129547441.749 5 100946064.30041  24652060.028 1  24652063.704 1
        35.000          11.000
  25287104.696 5 132884649.931 5 103546483.47541  25287106.108 1  25287104.037 1
        37.000          12.000
 13  1 30  0 50 30.0000000  0 10G25G02G12G29G04G30G31G10G14G23
  20327515.149 8 106821841.659 8  83237817.80746  20327515.001 6  20327519.639 6
        52.000          43.000
  22234896.436 7 116845194.477 7  91048225.13245  22234896.192 5  22234896.529 5
        48.000          36.000
  22195716.409 7 116639311.121 7  90887796.09245  22195716.547 5  22195718.219 5
        48.000          36.000
  20683840.823 8 108694342.268 8  84696905.82146  20683840.513 6  20683842.469 6
        51.000          42.000
  24494801.120 5 128721044.091 5 100302129.37441  24494800.741 1  24494800.415 1
        36.000          14.000
  24861014.045 5 130645506.382 5 101801709.68341  24861012.717 1  24861017.798 1
        36.000          12.000
  21713770.469 8 114106650.192 8  88914274.54346  21713770.651 5  21713771.722 6
        51.000          40.000
  24435135.724 5 128407499.860 5 100057819.96741  24435134.206 1  24435138.455 1
        38.000          17.000
  24671403.096 5 129649076.580 5 101025260.20141  24671400.656 1  24671403.271 1
        38.000          13.000
  25273559.139 5 132813469.931 5 103491018.52541  25273559.478 1  25273559.833 1
        37.000          13.000
 13  1 30  0 51  0.0000000  0 10G25G02G12G29G04G30G31G10G14G23
  20332974.439 8 106850528.707 8  83260171.34146  20332973.918 6  20332978.504 6
        52.000          43.000
  22239149.991 7 116867546.978 7  91065642.66445  22239149.351 5  22239149.589 5
        49.000          36.000
  22212167.363 7 116725761.803 7  90955160.23245  22212167.482 5  22212169.091 5
        48.000          36.000
  20674020.974 8 108642741.198 8  84656697.20146  20674021.095 6  20674023.021 6
        50.000          42.000
  24513388.100 5 128818719.604 5 100378240.17341  24513389.059 1  24513390.054 1
        37.000          12.000
  24839237.888 5 130531066.442 5 101712535.70241  24839237.280 1  24839239.055 1
        37.000          12.000
  21704698.417 8 114058974.481 8  88877124.63346  21704698.392 6  21704699.351 6
        50.000          40.000
  24425328.535 5 128355964.077 5 100017662.18841  24425328.108 1  24425330.797 1
        39.000          15.000
  24690761.562 5 129750826.412 5 101104545.72541  24690764.815 1  24690764.085 1
        36.000          12.000
  25260094.377 5 132742704.520 5 103435876.68541  25260092.273 1  25260092.227 1
        39.000          14.000
 13  1 30  0 51 30.0000000  0 10G25G02G12G29G04G30G31G10G14G23
  20338519.915 8 106879671.510 8  83282880.02246  20338519.590 6  20338524.242 6
        53.000          43.000
  22243508.421 8 116890451.219 8  91083490.12445  22243508.020 5  22243508.338 5
        50.000          36.000
  22228666.679 7 116812466.565 7  91022722.36945  22228666.908 5  22228668.391 5
        49.000          36.000
  20664289.162 8 108591602.717 8  84616849.04246  20664289.633 6  20664291.791 6
        52.000          43.000
  24532036.121 5 128916716.316 5 100454601.25041  24532035.414 1  24532039.419 1
        37.000          13.000
  24817470.099 5 130416672.449 5 101623397.50541  24817468.662 1  24817469.713 1
        37.000          14.000
  21695722.168 8 114011804.494 8  88840368.80246  21695721.987 6  21695723.206 6
        51.000          40.000
  24415617.006 5 128304935.657 5  99977899.80541  24415617.049 1  24415622.014 1
        36.000          16.000
  24710148.139 5 129852688.592 5 101183918.80541  24710146.434 1  24710149.572 1
        36.000          11.000
  25246706.637 5 132672355.732 5 103381059.45941  25246706.008 1  25246704.502 1
        39.000          14.000
 13  1 30  0 52  0.0000000  0 10G25G02G12G29G04G30G31G10G14G23
  20344152.648 8 106909269.621 8  83305943.48446  20344152.124 6  20344156.741 6
        52.000          44.000
  22247971.874 7 116913906.112 7  91101766.66445  22247971.558 5  22247971.560 5
        49.000          36.000
  22245214.770 7 116899424.711 7  91090481.93745  22245214.791 5  22245216.097 5
        49.000          36.000
  20654646.249 8 108540927.496 8  84577361.85846  20654646.428 6  20654648.626 6
        52.000          43.000
  24550744.271 5 129015031.202 5 100531210.23141  24550745.440 1  24550747.136 1
        38.000          13.000
  24795710.843 5 130302325.291 5 101534295.84641  24795708.108 1  24795710.925 1
        37.000          14.000
  21686842.441 8 113965141.999 8  88804008.41746  21686842.407 6  21686843.821 6
        51.000          40.000
  24406005.388 5 128254417.185 5  99938534.78941  24406003.479 1  24406006.684 1
        38.000          16.000
  24729551.089 5 129954659.730 5 101263376.77741  24729551.421 1  24729556.748 1
        35.000          11.000
  25233399.640 6 132602425.557 6 103326568.46041  25233399.716 1  25233398.852 1
        40.000          16.000
 13  1 30  0 52 30.0000000  0 10G25G02G12G29G04G30G31G10G14G23
  20349870.959 8 106939322.677 8  83329361.44846  20349870.958 6  20349875.586 6
        52.000          43.000
  22252539.818 7 116937910.921 7  91120471.71145  22252539.266 5  22252539.463 5
        48.000          36.000
  22261810.305 8 116986634.513 8  91158437.61045  22261810.249 5  22261811.463 5
        50.000          36.000
  20645091.905 8 108490716.602 8  84538236.49646  20645091.813 6  20645093.894 6
        52.000          43.000
  24569513.434 5 129113661.650 5 100608065.08841  24569512.350 1  24569515.295 1
        37.000          13.000
  24773959.404 5 130188027.108 5 101445232.33141  24773958.639 1  24773960.414 1
        37.000          15.000
  21678059.470 8 113918988.878 8  88768044.94946  21678059.954 6  21678060.899 6
        52.000          40.000
  24396488.269 5 128204410.968 5  99899568.95241  24396488.966 1  24396491.690 1
        37.000          15.000
  24748975.328 5 130056736.972 5 101342917.45041  24748977.141 1  24748977.123 1
        35.000          13.000
  25220172.118 6 132532916.807 6 103272405.86541  25220171.480 1  25220171.080 1
        40.000          16.000
 13  1 30  0 53  0.0000000  0 10G25G02G12G29G04G30G31G10G14G23
  20355676.684 8 106969830.249 8  83353133.58246  20355676.495 6  20355680.932 6
        52.000          44.000
  22257212.571 8 116962464.980 8  91139604.75245  22257212.022 5  22257211.862 5
        50.000          35.000
  22278452.981 7 117074094.917 7  91226588.56145  22278453.230 5  22278454.783 5
        47.000          36.000
  20635625.210 8 108440970.865 8  84499473.58646  20635625.412 6  20635627.698 6
        51.000          43.000
  24588341.334 5 129212604.613 5 100685163.47141  24588339.715 1  24588345.854 1
        36.000          13.000
  24752217.103 5 130073779.378 5 101356208.16241  24752217.623 1  24752219.954 1
        36.000          15.000
  21669374.674 8 113873346.881 8  88732479.75446  21669374.741 6  21669375.395 6
        51.000          40.000
  24387071.254 5 128154919.051 5  99861003.80741  24387069.876 1  24387073.181 1
        39.000          15.000
  24768418.730 4 130158917.449 4 101422538.53941  24768417.978 1  24768424.729 1
        34.000          11.000
  25207025.367 5 132463831.648 5 103218573.30141  25207024.798 1  25207024.448 1
        38.000          16.000
 13  1 30  0 53 30.0000000  0 10G25G02G12G29G04G30G31G10G14G23
  20361568.373 8 107000791.943 8  83377259.57646  20361568.096 6  20361572.773 6
        52.000          43.000
  22261989.197 7 116987567.442 7  91159165.11245  22261988.633 5  22261988.907 5
        48.000          35.000
  22295144.090 7 117161804.952 7  91294934.00845  22295143.691 5  22295145.548 5
        48.000          36.000
  20626247.951 8 108391691.100 8  84461073.78346  20626247.720 6  20626250.045 6
        52.000          43.000
  24607228.089 5 129311857.161 5 100762503.09941  24607229.022 1  24607230.503 1
        36.000          12.000
  24730486.728 5 129959583.537 5 101267224.38541  24730485.832 1  24730489.757 1
        35.000          15.000
  21660786.853 8 113828217.389 8  88697313.91746  21660786.889 6  21660787.803 6
        51.000          40.000
  24377751.108 5 128105943.857 5  99822841.30141  24377749.349 1  24377754.295 1
        38.000          15.000
  24787884.751 5 130261197.751 5 101502237.44341  24787884.333 1  24787887.878 1
        36.000          12.000
  25193960.418 5 132395172.669 5 103165072.86441  25193960.212 1  25193960.268 1
        39.000          15.000
 13  1 30  0 54  0.0000000  0 10G25G02G12G29G04G30G31G10G14G23
  20367546.232 8 107032207.258 8  83401739.04746  20367546.166 6  20367550.998 6
        52.000          44.000
  22266870.254 7 117013217.233 7  91179151.96245  22266869.624 5  22266869.643 5
        49.000          35.000
  22311881.752 7 117249763.030 7  91363472.74745  22311881.902 5  22311883.584 5
        48.000          36.000
  20616958.826 8 108342878.175 8  84423037.74746  20616958.841 6  20616961.163 6
        50.000          43.000
  24626173.434 4 129411416.407 4 100840081.75641  24626174.304 1  24626174.774 1
        34.000          11.000
  24708765.309 5 129845441.388 5 101178282.51841  24708764.950 1  24708768.465 1
        36.000          15.000
  21652296.453 8 113783602.213 8  88662548.84146  21652296.817 6  21652297.802 6
        50.000          41.000
  24368528.668 5 128057487.581 5  99785083.21241  24368527.898 1  24368531.970 1
        37.000          14.000
  24807366.635 4 130363575.054 4 101582011.91341  24807363.104 1  24807370.790 1
        34.000          10.000
  25180975.230 5 132326941.975 5 103111906.12241  25180974.383 1  25180974.257 1
        39.000          15.000
 13  1 30  0 54 30.0000000  0 10G25G02G12G29G04G30G31G10G14G23
  20373610.903 8 107064075.837 8  83426571.69946  20373610.546 6  20373615.416 6
        51.000          43.000
  22271855.221 7 117039413.821 7  91199564.90645  22271854.365 5  22271855.386 5
        48.000          36.000
  22328667.364 7 117337968.079 7  91432203.92945  22328667.013 5  22328668.520 5
        49.000          36.000
  20607759.178 8 108294532.702 8  84385365.96146  20607759.129 6  20607761.443 6
        52.000          43.000
  24645178.962 5 129511279.669 5 100917897.28641  24645174.522 1  24645181.942 1
        37.000          10.000
  24687057.981 5 129731354.602 5 101089383.71641  24687056.128 1  24687058.436 1
        38.000          16.000
  21643905.171 8 113739502.877 8  88628185.72546  21643904.872 6  21643905.908 6
        52.000          40.000
  24359408.812 5 128009552.676 5  99747731.36741  24359407.016 1  24359412.556 1
        36.000          13.000
  24826867.297 5 130466046.602 5 101661859.78941  24826864.103 1  24826870.541 1
        36.000          11.000
  25168073.130 5 132259141.743 5 103059074.80041  25168073.352 1  25168069.265 1
        38.000          14.000
 13  1 30  0 55  0.0000000  0 10G25G02G12G29G04G30G31G10G14G23
  20379761.436 8 107096397.166 8  83451757.15046  20379761.118 6  20379765.835 6
        51.000          43.000
  22276944.246 8 117066156.299 8  91220403.19845  22276943.765 5  22276943.788 5
        50.000          36.000
  22345498.716 7 117426418.347 7  91501126.18645  22345498.527 5  22345499.803 5
        49.000          36.000
  20598648.655 8 108246655.646 8  84348059.16946  20598648.518 6  20598650.610 6
        52.000          43.000
  24664239.265 5 129611443.937 5 100995947.37041  24664237.164 1  24664241.541 1
        37.000          10.000
  24665357.732 5 129617324.424 5 101000529.05141  24665356.838 1  24665359.685 1
        38.000          16.000
  21635610.933 7 113695921.049 7  88594225.85946  21635611.417 6  21635612.439 6
        49.000          40.000
  24350386.759 5 127962140.755 5  99710786.96841  24350385.049 1  24350388.930 1
        38.000          15.000
  24846381.637 4 130568608.985 4 101741778.50841  24846383.233 1  24846386.365 1
        34.000          10.000
  25155254.667 5 132191774.306 5 103006580.76941  25155255.037 1  25155256.708 1
        39.000          14.000
 13  1 30  0 55 30.0000000  0 10G25G02G12G29G04G30G31G10G14G23
  20385998.218 8 107129170.859 8  83477295.08946  20385997.876 6  20386002.567 6
        51.000          43.000
  22282136.166 7 117093443.349 7  91241665.83945  22282135.789 5  22282136.516 5
        49.000          35.000
  22362376.597 7 117515113.092 7  91570238.96245  22362376.393 5  22362377.832 5
        48.000          35.000
  20589626.822 8 108199247.621 8  84311117.86546  20589626.910 6  20589629.056 6
        50.000          42.000
  24683356.031 5 129711906.379 5 101074229.76341  24683354.778 1  24683357.498 1
        36.000          11.000
  24643668.479 5 129503352.855 5 100911720.05841  24643666.790 1  24643670.302 1
        37.000          17.000
  21627416.950 8 113652858.614 8  88560670.71446  21627416.774 5  21627417.957 6
        50.000          40.000
  24341464.455 5 127915254.284 5  99674252.05341  24341463.837 1  24341465.467 1
        39.000          16.000
  24865917.539 5 130671259.416 5 101821765.76541  24865912.853 1  24865918.223 1
        35.000          11.000
  25142517.495 6 132124842.226 6 102954425.85741  25142515.814 1  25142515.191 1
        40.000          14.000
 13  1 30  0 56  0.0000000  0 10G25G02G12G29G04G30G31G10G14G23
  20392320.488 8 107162396.359 8  83503185.08546  20392320.283 6  20392325.094 6
        52.000          43.000
  22287432.374 8 117121274.102 8  91263352.14045  22287432.051 5  22287432.428 5
        50.000          35.000
  22379300.925 7 117604051.140 7  91639541.31045  22379301.088 5  22379302.428 5
        49.000          35.000
  20580694.759 8 108152309.621 8  84274542.79846  20580694.955 6  20580697.000 6
        50.000          43.000
  24702530.503 5 129812664.137 5 101152742.30841  24702532.060 1  24702533.786 1
        39.000          12.000
  24621992.035 5 129389441.360 5 100822957.86841  24621991.560 1  24621994.179 1
        38.000          18.000
  21619321.634 8 113610317.102 8  88527521.48246  21619321.825 6  21619322.511 6
        50.000          40.000
  24332643.290 6 127868895.317 6  99638128.19341  24332640.980 1  24332645.127 1
        41.000          17.000
  24885466.296 5 130773994.947 5 101901819.34341  24885464.574 1  24885470.067 1
        35.000           9.000
  25129864.037 6 132058347.574 6 102902611.82941  25129864.313 1  25129862.829 1
        41.000          15.000
 13  1 30  0 56 30.0000000  0 10G25G02G12G29G04G30G31G10G14G23
  20398729.554 8 107196073.291 8  83529426.85246  20398729.046 6  20398733.578 6
        52.000          43.000
  22292832.080 7 117149647.988 7  91285461.66545  22292831.683 5  22292832.019 5
        49.000          36.000
  22396271.284 7 117693230.422 7  91709031.65445  22396271.231 5  22396272.573 5
        48.000          35.000
  20571852.285 8 108105842.022 8  84238334.28546  20571852.498 6  20571854.499 6
        52.000          43.000
  24721758.965 5 129913714.415 5 101231482.80241  24721758.254 1  24721759.035 1
        37.000          11.000
  24600327.770 5 129275591.465 5 100734243.68341  24600326.418 1  24600328.494 1
        39.000          19.000
  21611325.717 8 113568298.044 8  88494779.35646  21611325.726 6  21611326.673 6
        51.000          40.000
  24323920.268 5 127823066.286 5  99602417.27841  24323919.957 1  24323924.883 1
        39.000          16.000
  24905030.565 4 130876812.130 4 101981936.60741  24905030.060 1  24905034.007 1
        33.000           8.000
  25117294.312 6 131992292.583 6 102851140.47241  25117293.174 1  25117294.086 1
        41.000          15.000
 13  1 30  0 57  0.0000000  0 10G25G02G12G29G04G30G31G10G14G23
  20405223.248 8 107230201.095 8  83556019.94246  20405223.151 6  20405227.987 6
        51.000          43.000
  22298334.209 7 117178563.855 7  91307993.51045  22298333.742 5  22298334.381 5
        47.000          35.000
  22413287.055 7 117782650.826 7  91778709.86445  22413286.890 5  22413288.716 5
        47.000          35.000
  20563099.941 8 108059845.750 8  84202493.03846  20563099.660 6  20563101.717 6
        52.000          43.000
  24741043.346 4 130015054.260 4 101310448.83341  24741043.895 1  24741045.751 1
        34.000           6.000
  24578675.109 5 129161805.254 5 100645579.07841  24578674.439 1  24578677.725 1
        38.000          19.000
  21603429.148 8 113526803.335 8  88462445.81646  21603429.524 6  21603430.789 6
        51.000          40.000
  24315302.179 5 127777769.113 5  99567120.80341  24315300.967 1  24315304.115 1
        39.000          17.000
  24924611.570 4 130979708.478 4 102062115.51241  24924612.532 1  24924614.263 1
        33.000          10.000
  25104807.822 6 131926679.505 6 102800013.42041  25104807.184 1  25104807.184 1
        41.000          14.000
 13  1 30  0 57 30.0000000  0 10G25G02G12G29G04G30G31G10G14G23
  20411804.083 8 107264779.305 8  83582964.00046  20411803.427 6  20411807.822 6
        52.000          43.000
  22303940.058 7 117208020.608 7  91330946.83545  22303939.450 5  22303939.767 5
        49.000          35.000
  22430348.446 7 117872310.507 7  91848574.52744  22430348.710 4  22430350.320 4
        48.000          34.000
  20554436.774 8 108014321.425 8  84167019.54546  20554436.663 6  20554438.798 6
        51.000          42.000
  24760381.781 4 130116680.705 4 101389638.35741  24760378.965 1  24760385.512 1
        33.000           5.000
  24557034.334 5 129048083.825 5 100556965.00241  24557032.829 1  24557036.854 1
        39.000          19.000
  21595633.174 8 113485834.408 8  88430521.96846  21595633.414 6  21595634.691 6
        51.000          40.000
  24306783.203 5 127733005.885 5  99532240.35541  24306781.346 1  24306786.359 1
        39.000          17.000
  24944209.103 4 131082680.984 4 102142353.76841  24944207.919 1  24944210.986 1
        34.000           9.000
  25092407.184 6 131861510.578 6 102749232.45541  25092405.397 1  25092406.245 1
        41.000          16.000
 13  1 30  0 58  0.0000000  0 10G25G02G12G29G04G30G31G10G14G23
  20418469.531 8 107299807.383 8  83610258.60346  20418468.918 6  20418473.601 6
        52.000          43.000
  22309647.688 7 117238017.288 7  91354320.86545  22309647.552 5  22309648.184 5
        46.000          35.000
  22447455.462 7 117962208.167 7  91918624.63544  22447455.435 4  22447457.419 4
        48.000          34.000
  20545863.798 8 107969269.669 8  84131914.28446  20545863.666 6  20545865.798 6
        52.000          43.000
  24779774.544 4 130218591.022 4 101469049.04241  24779771.616 1  24779779.212 1
        34.000           5.000
  24535406.342 6 128934429.273 6 100468403.02341  24535406.509 1  24535407.983 1
        40.000          19.000
  21587937.639 8 113445392.566 8  88399008.84646  21587937.502 6  21587938.609 6
        52.000          40.000
  24298367.174 6 127688778.771 6  99497777.77441  24298366.440 1  24298370.926 1
        41.000          16.000
  24963817.367 5 131185726.378 5 102222648.76341  24963816.678 1  24963822.397 1
        35.000           9.000
  25080091.555 6 131796788.163 6 102698799.44841  25080090.763 1  25080089.572 1
        40.000          15.000
 13  1 30  0 58 30.0000000  0 10G25G02G12G29G04G30G31G10G14G23
  20425220.574 8 107335284.894 8  83637903.41646  20425220.241 6  20425224.893 6
        51.000          43.000
  22315458.876 7 117268553.168 7  91378115.06844  22315458.137 4  22315458.575 4
        47.000          34.000
  22464607.187 7 118052342.680 7  91988859.30844  22464607.473 4  22464609.475 4
        48.000          34.000
  20537380.745 8 107924691.347 8  84097177.93346  20537380.718 6  20537382.832 6
        52.000          43.000
  24799220.611 4 130320782.440 4 101548678.73641  24799222.525 1  24799218.704 1
        33.000           3.000
  24513792.466 5 128820843.069 5 100379894.31441  24513791.249 1  24513793.236 1
        39.000          18.000
  21580342.237 8 113405479.506 8  88367907.76446  21580342.221 6  21580343.590 6
        51.000          40.000
  24290054.148 5 127645089.972 5  99463734.52541  24290053.805 1  24290056.593 1
        38.000          17.000
  24983438.909 4 131288841.880 4 102302998.48341  24983437.164 1  24983439.718 1
        33.000           7.000
  25067858.268 5 131732514.448 5 102648716.06841  25067858.560 1  25067860.409 1
        38.000          16.000
 13  1 30  0 59  0.0000000  0 10G25G02G12G29G04G30G31G10G14G23
  20432056.734 8 107371211.242 8  83665897.95546  20432056.602 6  20432061.303 6
        52.000          43.000
  22321371.620 7 117299626.747 7  91402328.24645  22321371.350 5  22321371.415 5
        48.000          35.000
  22481804.364 7 118142712.741 7  92059277.51944  22481804.527 4  22481806.594 4
        48.000          34.000
  20528987.886 8 107880587.358 8  84062811.19146  20528988.100 6  20528990.290 6
        51.000          43.000
  24818721.691 4 130423252.028 4 101628525.01941  24818720.171 1  24818724.473 1
        33.000           1.000
  24492191.059 5 128707326.762 5 100291440.05041  24492189.978 1  24492191.274 1
        39.000          17.000
  21572847.527 8 113366096.829 8  88337219.95946  21572848.025 6  21572849.220 6
        51.000          40.000
  24281843.589 5 127601941.158 5  99430112.07341  24281840.615 1  24281845.044 1
        37.000          15.000
  25003074.337 4 131392024.484 4 102383400.50741  25003071.194 1  25003076.591 1
        34.000           9.000
  25055714.513 5 131668691.679 5 102598984.06541  25055713.613 1  25055715.581 1
        39.000          16.000
 13  1 30  0 59 30.0000000  0 10G25G02G12G29G04G30G31G10G14G23
  20438978.823 8 107407585.967 8  83694241.90046  20438978.349 6  20438983.020 6
        51.000          43.000
  22327386.826 7 117331237.123 7  91426959.71144  22327385.990 4  22327387.073 4
        46.000          34.000
  22499046.010 7 118233317.117 7  92129878.30744  22499046.356 4  22499048.223 4
        48.000          34.000
  20520685.519 8 107836958.147 8  84028814.40746  20520685.674 6  20520687.824 6
        53.000          44.000
  24838272.069 4 130525996.744 4 101708585.82041  24838272.792 1  24838276.246 1
        30.000           3.000
  24470602.682 5 128593882.401 5 100203041.82241  24470601.999 1  24470603.292 1
        39.000          17.000
  21565454.471 8 113327245.957 8  88306946.55146  21565454.879 6  21565456.158 6
        51.000          40.000
  24273735.022 6 127559334.544 6  99396912.15341  24273733.558 1  24273737.973 1
        40.000          16.000
  25022721.941 4 131495271.136 4 102463852.32241  25022722.957 1  25022723.177 1
        34.000           8.000
  25043656.038 6 131605321.480 6 102549604.71541  25043655.953 1  25043655.849 1
        40.000          17.000
 13  1 30  1  0  0.0000000  0 10G25G02G12G29G04G30G31G10G14G23
  20445985.351 8 107444408.517 8  83722934.78946  20445985.648 6  20445990.120 6
        51.000          43.000
  22333504.913 7 117363383.200 7  91452008.60845  22333504.150 5  22333503.891 5
        47.000          35.000
  22516331.655 7 118324154.145 7  92200660.39044  22516331.655 4  22516333.338 4
        47.000          34.000
  20512473.683 8 107793803.987 8  83995187.79046  20512473.606 6  20512475.919 6
        51.000          43.000
  24857876.312 4 130629013.777 4 101788858.86441  24857875.356 1  24857877.401 1
        32.000           5.000
  24449029.251 5 128480511.512 5 100114700.88941  24449028.838 1  24449031.441 1
        39.000          18.000
  21558163.052 8 113288928.442 8  88277088.74946  21558163.440 6  21558164.414 6
        50.000          40.000
  24265730.585 5 127517272.148 5  99364136.22841  24265728.882 1  24265732.831 1
        38.000          16.000
  25042379.992 5 131598578.757 5 102544351.82241  25042379.850 1  25042383.457 1
        35.000           9.000
  25031682.304 5 131542406.489 5 102500580.05741  25031682.509 1  25031683.801 1
        39.000          14.000
 13  1 30  1  0 30.0000000  0 10G25G02G12G29G04G30G31G10G14G23
  20453078.061 8 107481678.275 8  83751976.15446  20453077.696 6  20453082.283 6
        52.000          43.000
  22339723.109 7 117396064.019 7  91477474.17845  22339722.672 5  22339723.139 5
        47.000          35.000
  22533661.724 7 118415223.175 7  92271623.26844  22533662.022 4  22533663.520 4
        48.000          34.000
  20504352.218 8 107751126.374 8  83961932.51346  20504352.298 6  20504354.508 6
        52.000          43.000
  24877530.293 4 130732300.621 4 101869342.07441  24877530.501 1  24877534.917 1
        34.000           8.000
  24427468.917 5 128367215.712 5 100026418.45641  24427468.302 1  24427471.542 1
        38.000          18.000
  21550973.518 8 113251145.872 8  88247647.79046  21550973.693 6  21550974.800 6
        51.000          40.000
  24257830.638 5 127475755.888 5  99331785.94941  24257828.553 1  24257832.361 1
        37.000          12.000
  25062051.358 4 131701944.712 4 102624896.62641  25062045.426 1  25062056.637 1
        34.000           7.000
  25019797.644 6 131479948.802 6 102451911.75041  25019797.466 1  25019798.967 1
        40.000          15.000
 13  1 30  1  1  0.0000000  0  9G25G02G12G29G04G30G31G10G23
  20460255.705 8 107519394.741 8  83781365.60946  20460255.141 6  20460259.670 6
        51.000          43.000
  22346043.423 7 117429278.375 7  91503355.51044  22346043.265 4  22346043.104 4
        47.000          34.000
  22551035.528 7 118506522.703 7  92342765.73744  22551035.421 4  22551036.997 4
        48.000          34.000
  20496321.827 8 107708925.054 8  83929048.36546  20496321.708 6  20496323.906 6
        50.000          44.000
  24897234.208 4 130835853.960 4 101950032.97341  24897237.368 1  24897235.556 1
        34.000           8.000
  24405925.005 5 128253996.687 5  99938195.84341  24405923.278 1  24405925.845 1
        39.000          17.000
  21543885.523 8 113213899.636 8  88218624.74246  21543885.947 6  21543886.987 6
        51.000          40.000
  24250034.719 5 127434787.594 5  99299862.55741  24250034.072 1  24250036.973 1
        39.000           9.000
  25008000.302 6 131417950.793 6 102403601.61341  25008000.651 1  25007998.161 1
        41.000          16.000
 13  1 30  1  1 30.0000000  0  9G25G02G12G29G04G30G31G10G23
  20467516.622 8 107557557.376 8  83811102.71946  20467516.995 6  20467521.747 6
        52.000          43.000
  22352465.549 7 117463025.297 7  91529651.80145  22352465.405 5  22352465.177 5
        49.000          35.000
  22568453.006 7 118598051.250 7  92414086.67344  22568452.896 4  22568454.445 4
        47.000          34.000
  20488381.660 8 107667201.071 8  83896536.17246  20488381.885 6  20488384.003 6
        51.000          43.000
  24916989.670 4 130939671.054 4 102030929.38741  24916987.946 1  24916993.372 1
        33.000           8.000
  24384395.025 5 128140856.299 5  99850034.52641  24384393.491 1  24384396.915 1
        38.000          17.000
  21536900.514 8 113177191.404 8  88190020.92846  21536900.568 6  21536901.753 6
        50.000          41.000
  24242342.920 5 127394369.403 5  99268367.90341  24242342.193 1  24242344.788 1
        38.000          11.000
  24996289.690 6 131356414.340 6 102355651.10741  24996288.910 1  24996289.255 1
        40.000          15.000
 13  1 30  1  2  0.0000000  0  9G25G02G12G29G04G30G31G10G23
  20474864.329 8 107596165.534 8  83841186.98746  20474863.828 6  20474868.477 6
        52.000          43.000
  22358988.836 7 117497303.374 7  91556361.99144  22358988.096 4  22358988.041 4
        48.000          34.000
  22585913.670 7 118689807.793 7  92485585.25044  22585913.195 4  22585915.253 4
        47.000          34.000
  20480533.006 8 107625954.731 8  83864396.16746  20480533.104 6  20480535.091 6
        52.000          43.000
  24936798.725 4 131043749.106 4 102112029.19041  24936799.315 1  24936800.306 1
        34.000           8.000
  24362878.966 5 128027796.160 5  99761935.71641  24362877.780 1  24362881.521 1
        36.000          16.000
  21530017.774 8 113141022.472 8  88161837.34546  21530017.874 6  21530019.044 6
        52.000          41.000
  24234757.805 5 127354503.365 5  99237303.54341  24234755.869 1  24234757.173 1
        38.000          10.000
  24984668.239 5 131295341.727 5 102308062.06741  24984668.284 1  24984666.413 1
        39.000          16.000
 13  1 30  1  2 30.0000000  0  9G25G02G12G29G04G30G31G10G23
  20482296.139 8 107635218.735 8  83871618.05046  20482295.389 6  20482300.185 6
        52.000          43.000
  22365612.652 7 117532111.506 7  91583485.21245  22365612.106 4  22365612.037 5
        49.000          35.000
  22603417.342 7 118781791.058 7  92557260.50844  22603417.306 4  22603418.858 4
        47.000          33.000
  20472775.662 8 107585187.313 8  83832629.35046  20472775.426 6  20472777.373 6
        53.000          43.000
  24956652.499 4 131148085.434 4 102193330.16441  24956651.696 1  24956654.533 1
        32.000           9.000
  24341380.329 5 127914818.020 5  99673900.81741  24341378.199 1  24341382.484 1
        37.000          15.000
  21523238.492 8 113105394.073 8  88134074.95946  21523238.266 6  21523239.008 6
        52.000          40.000
  24227275.207 5 127315191.179 5  99206670.62741  24227276.121 1  24227277.089 1
        36.000           9.000
  24973135.832 6 131234735.030 6 102260836.12641  24973135.198 1  24973134.370 1
        40.000          17.000
 13  1 30  1  3  0.0000000  0  9G25G02G12G29G04G30G31G10G23
  20489811.699 8 107674716.268 8  83902395.35046  20489811.655 6  20489816.322 6
        52.000          43.000
  22372336.681 7 117567448.419 7  91611020.46444  22372336.219 4  22372336.544 4
        48.000          34.000
  22620964.368 7 118873999.885 7  92629111.51444  22620964.207 4  22620965.390 4
        47.000          33.000
  20465108.943 8 107544898.985 8  83801235.85046  20465108.743 6  20465110.671 6
        52.000          43.000
  24976555.063 4 131252677.066 4 102274830.07141  24976552.923 1  24976556.617 1
        33.000           7.000
  24319896.346 5 127801923.706 5  99585931.26741  24319894.406 1  24319899.713 1
        36.000          15.000
  21516561.384 8 113070307.746 8  88106734.96346  21516561.497 6  21516562.204 6
        51.000          41.000
  24219900.073 5 127276434.467 5  99176470.61441  24219899.311 1  24219901.917 1
        35.000          10.000
  24961690.935 6 131174596.129 6 102213974.63641  24961690.821 1  24961691.534 1
        40.000          17.000
 13  1 30  1  3 30.0000000  0  9G25G02G12G29G04G30G31G10G23
  20497412.330 8 107714657.655 8  83933518.49746  20497412.155 6  20497416.994 6
        52.000          43.000
  22379161.908 7 117603313.281 7  91638967.11445  22379161.441 5  22379161.627 5
        49.000          35.000
  22638552.863 7 118966432.607 7  92701136.99344  22638553.273 4  22638555.000 4
        47.000          33.000
  20457533.314 8 107505090.168 8  83770215.99946  20457533.310 6  20457535.208 6
        53.000          44.000
  24996506.088 5 131357521.104 5 102356526.68641  24996508.988 1  24996507.656 1
        35.000           9.000
  24298430.769 5 127689114.845 5  99498028.25841  24298429.124 1  24298432.564 1
        37.000          15.000
  21509988.192 8 113035765.110 8  88079818.62546  21509988.104 6  21509988.986 6
        53.000          40.000
  24212631.038 5 127238235.393 5  99146705.09141  24212631.642 1  24212632.103 1
        36.000          11.000
  24950336.442 6 131114927.220 6 102167479.39241  24950336.581 1  24950336.078 1
        40.000          18.000
 13  1 30  1  4  0.0000000  0  9G25G02G12G29G04G30G31G10G23
  20505097.543 8 107755042.189 8  83964986.96346  20505097.197 6  20505101.980 6
        52.000          43.000
  22386086.468 7 117639704.756 7  91667324.10045  22386086.320 4  22386086.715 5
        48.000          35.000
  22656185.423 7 119059088.288 7  92773336.19244  22656185.236 4  22656186.818 4
        47.000          33.000
  20450049.297 8 107465761.396 8  83739570.20146  20450049.210 6  20450051.299 6
        53.000          44.000
  25016503.940 4 131462614.736 4 102438417.82441  25016505.744 1  25016504.838 1
        33.000           7.000
  24276979.993 5 127576393.103 5  99410193.13941  24276978.596 1  24276983.774 1
        38.000          17.000
  21503518.775 8 113001767.616 8  88053327.06846  21503518.652 6  21503519.754 6
        52.000          40.000
  24205469.719 5 127200595.746 5  99117375.49041  24205468.125 1  24205471.120 1
        36.000          12.000
  24939072.471 6 131055730.637 6 102121352.19741  24939070.917 1  24939072.641 1
        41.000          18.000
 13  1 30  1  4 30.0000000  0  9G25G02G12G29G04G30G31G10G23
  20512866.880 8 107795869.326 8  83996800.31546  20512866.241 6  20512871.060 6
        51.000          43.000
  22393111.927 7 117676621.438 7  91696090.35645  22393111.198 5  22393111.682 5
        49.000          35.000
  22673859.328 7 119151965.924 7  92845708.35644  22673859.288 4  22673860.574 4
        47.000          33.000
  20442656.581 8 107426913.453 8  83709299.08346  20442656.749 6  20442658.806 6
        52.000          43.000
  25036548.982 4 131567955.070 4 102520501.22841  25036551.218 1  25036551.838 1
        31.000           6.000
  24255548.183 5 127463760.534 5  99322427.50541  24255547.025 1  24255549.990 1
        38.000          18.000
  21497153.000 8 112968316.175 8  88027261.00646  21497153.100 6  21497153.939 6
        51.000          40.000
  24198414.466 5 127163517.141 5  99088483.12741  24198412.692 1  24198415.407 1
        39.000          12.000
  24927896.887 6 130997008.120 6 102075594.41941  24927896.773 1  24927896.960 1
        41.000          18.000
 13  1 30  1  5  0.0000000  0  9G25G02G12G29G04G30G31G10G23
  20520720.460 8 107837138.377 8  84028958.01046  20520719.669 6  20520724.246 6
        52.000          43.000
  22400236.362 7 117714062.130 7  91725264.92245  22400236.112 5  22400236.492 5
        49.000          35.000
  22691575.462 7 119245063.763 7  92918252.10444  22691575.320 4  22691576.814 4
        47.000          32.000
  20435355.670 8 107388546.720 8  83679402.92146  20435355.710 6  20435357.884 6
        52.000          44.000
  25056642.027 4 131673539.092 4 102602774.52341  25056641.998 1  25056644.884 1
        32.000           5.000
  24234130.105 5 127351218.570 5  99234732.48341  24234130.253 1  24234133.216 1
        38.000          17.000
  21490891.434 8 112935412.040 8  88001621.41446  21490891.490 6  21490892.622 6
        51.000          41.000
  24191463.995 5 127127001.516 5  99060029.37941  24191463.050 1  24191466.837 1
        36.000          14.000
  24916813.452 5 130938761.885 5 102030207.75141  24916813.008 1  24916812.786 1
        39.000          17.000
 13  1 30  1  5 30.0000000  0  9G25G02G12G29G04G30G31G10G23
  20528657.535 8 107878848.753 8  84061459.60146  20528656.731 6  20528661.525 6
        51.000          42.000
  22407461.140 7 117752025.654 7  91754846.89044  22407460.347 4  22407460.523 4
        49.000          34.000
  22709332.969 7 119338380.729 7  92990966.60044  22709332.847 4  22709334.531 4
        46.000          33.000
  20428146.199 8 107350661.764 8  83649882.17946  20428146.384 6  20428148.529 6
        52.000          43.000
  25076779.589 4 131779364.538 4 102685235.89641  25076784.613 1  25076780.589 1
        30.000           3.000
  24212731.505 5 127238769.254 5  99147109.64041  24212732.259 1  24212735.213 1
        37.000          17.000
  21484734.536 8 112903057.011 8  87976409.70646  21484734.621 6  21484735.604 6
        50.000          41.000
  24184623.799 5 127091050.661 5  99032015.73141  24184623.750 1  24184625.095 1
        39.000          13.000
  24905821.183 6 130880993.752 6 101985193.62341  24905821.111 1  24905818.729 1
        41.000          19.000
 13  1 30  1  6  0.0000000  0  8G25G02G12G29G30G31G10G23
  20536678.413 8 107920999.780 8  84094304.55146  20536677.832 6  20536682.509 6
        51.000          43.000
  22414783.581 7 117790510.647 7  91784835.19344  22414783.441 4  22414783.492 4
        46.000          34.000
  22727132.496 7 119431915.524 7  93063850.82544  22727131.892 4  22727133.859 4
        47.000          33.000
  20421029.173 8 107313259.130 8  83620737.27446  20421028.846 6  20421030.976 6
        51.000          44.000
  24191352.048 5 127126414.263 5  99059560.31141  24191351.048 1  24191354.746 1
        39.000          19.000
  21478682.413 8 112871252.322 8  87951626.83146  21478682.484 6  21478683.379 6
        50.000          41.000
  24177890.325 5 127055666.187 5  99004443.43641  24177888.195 1  24177893.387 1
        39.000          14.000
  24894919.338 6 130823705.594 6 101940553.54941  24894919.106 1  24894918.676 1
        40.000          18.000
 13  1 30  1  6 30.0000000  0  8G25G02G12G29G30G31G10G23
  20544782.820 8 107963590.859 8  84127492.40246  20544782.687 6  20544787.351 6
        51.000          43.000
  22422206.320 7 117829515.837 7  91815228.84144  22422205.757 4  22422206.212 4
        49.000          34.000
  22744972.645 7 119525666.657 7  93136903.63144  22744972.365 4  22744974.113 4
        47.000          33.000
  20414003.090 8 107276339.155 8  83591968.45946  20414003.344 6  20414005.371 6
        51.000          44.000
  24169989.933 5 127014155.432 5  98972085.89541  24169989.563 1  24169993.255 1
        39.000          19.000
  21472735.359 8 112839999.018 8  87927273.60546  21472735.228 6  21472736.112 6
        52.000          41.000
  24171265.513 5 127020850.166 5  98977314.00941  24171264.135 1  24171267.689 1
        37.000          15.000
  24884110.309 6 130766899.843 6 101896289.33341  24884108.956 1  24884107.442 1
        41.000          18.000
 13  1 30  1  7  0.0000000  0  8G25G02G12G29G30G31G10G23
  20552971.388 8 108006621.246 8  84161022.56446  20552971.157 6  20552975.839 6
        52.000          43.000
  22429727.758 7 117869039.882 7  91846026.80644  22429726.896 4  22429727.483 4
        48.000          34.000
  22762853.035 7 119619632.851 7  93210124.01844  22762853.333 4  22762855.693 4
        47.000          33.000
  20407069.670 8 107239902.497 8  83563576.26546  20407069.674 6  20407071.751 6
        52.000          44.000
  24148647.922 6 126901994.387 6  98884687.65141  24148645.700 1  24148649.234 1
        40.000          18.000
  21466893.071 8 112809298.616 8  87903351.21546  21466892.985 6  21466893.962 6
        52.000          41.000
  24164747.553 5 126986604.413 5  98950629.02041  24164746.731 1  24164751.287 1
        38.000          14.000
  24873394.218 6 130710578.589 6 101852402.65341  24873392.614 1  24873391.790 1
        41.000          18.000
 13  1 30  1  7 30.0000000  0  8G25G02G12G29G30G31G10G23
  20561243.498 8 108050090.386 8  84194894.62246  20561243.161 6  20561247.751 6
        52.000          43.000
  22437347.807 7 117909081.425 7  91877228.01944  22437346.791 4  22437347.067 4
        49.000          34.000
  22780775.120 7 119713813.309 7  93283511.37444  22780775.323 4  22780777.862 4
        45.000          33.000
  20400227.866 8 107203949.759 8  83535561.15546  20400228.154 6  20400230.128 6
        51.000          44.000
  24127321.890 5 126789932.939 5  98797367.05741  24127320.976 1  24127323.839 1
        39.000          18.000
  21461156.204 8 112779152.364 8  87879860.63146  21461156.348 6  21461157.167 6
        52.000          41.000
  24158340.171 5 126952930.019 5  98924389.26641  24158338.308 1  24158342.190 1
        37.000          10.000
  24862766.466 6 130654743.208 6 101808894.58341  24862766.227 1  24862765.998 1
        40.000          19.000
 13  1 30  1  8  0.0000000  0  8G25G02G12G29G30G31G10G23
  20569598.971 8 108093997.470 8  84229107.92446  20569598.255 6  20569603.018 6
        52.000          43.000
  22445065.272 7 117949639.186 7  91908831.44444  22445064.753 4  22445064.986 4
        47.000          33.000
  22798738.144 7 119808206.236 7  93357064.25544  22798737.572 4  22798740.025 4
        47.000          33.000
  20393478.268 8 107168480.953 8  83507923.12246  20393478.703 6  20393480.628 6
        52.000          44.000
  24106017.156 5 126677973.136 5  98710125.63641  24106015.009 1  24106018.792 1
        39.000          19.000
  21455525.301 8 112749561.499 8  87856802.80446  21455525.644 6  21455526.321 6
        53.000          41.000
  24152042.050 5 126919828.918 5  98898596.23441  24152039.206 1  24152042.062 1
        36.000          14.000
  24852234.113 6 130599396.001 6 101765766.94241  24852233.453 1  24852235.954 1
        40.000          19.000
 13  1 30  1  8 30.0000000  0  8G25G02G12G29G30G31G10G23
  20578037.118 8 108138341.928 8  84263662.04046  20578036.693 6  20578041.398 6
        52.000          43.000
  22452881.046 7 117990711.864 7  91940836.15844  22452880.445 4  22452880.504 4
        48.000          34.000
  22816741.896 7 119902810.676 7  93430781.98144  22816740.733 4  22816742.450 4
        46.000          32.000
  20386821.221 8 107133496.795 8  83480662.74546  20386821.283 6  20386823.356 6
        52.000          44.000
  24084732.097 5 126566116.574 5  98622964.70941  24084730.278 1  24084733.016 1
        38.000          19.000
  21450000.216 8 112720527.309 8  87834178.76046  21450000.410 6  21450001.424 6
        52.000          41.000
  24145850.837 5 126887302.595 5  98873251.05641  24145851.856 1  24145853.306 1
        36.000          12.000
  24841795.223 5 130544538.800 5 101723021.06341  24841794.712 1  24841796.117 1
        39.000          17.000
 13  1 30  1  9  0.0000000  0  8G25G02G12G29G30G31G10G23
  20586558.372 8 108183122.993 8  84298556.37046  20586558.142 6  20586563.008 6
        51.000          43.000
  22460794.436 7 118032298.060 7  91973240.96044  22460793.914 4  22460794.533 4
        48.000          34.000
  22834783.120 7 119997625.466 7  93504663.60544  22834783.238 4  22834784.893 4
        46.000          32.000
  20380256.282 8 107098997.710 8  83453780.33846  20380256.359 6  20380258.518 6
        52.000          44.000
  24063465.508 6 126454365.225 6  98535885.72641  24063465.493 1  24063467.618 1
        40.000          19.000
  21444581.401 8 112692050.970 8  87811989.39846  21444581.465 6  21444582.639 6
        52.000          41.000
  24139771.117 5 126855352.519 5  98848354.89541  24139771.741 1  24139775.245 1
        37.000          13.000
  24831449.639 5 130490173.448 5 101680658.46541  24831449.329 1  24831449.913 1
        39.000          18.000
 13  1 30  1  9 30.0000000  0  8G25G02G12G29G30G31G10G23
  20595163.202 8 108228340.000 8  84333790.40046  20595162.892 6  20595167.509 6
        52.000          43.000
  22468805.982 7 118074396.353 7  92006044.84044  22468805.537 4  22468805.584 4
        49.000          34.000
  22852866.282 7 120092648.934 7  93578707.84944  22852866.131 4  22852866.940 4
        45.000          32.000
  20373783.779 8 107064984.223 8  83427276.33546  20373783.689 6  20373785.923 6
        53.000          44.000
  24042220.899 6 126342720.763 6  98448890.05842  24042220.494 2  24042221.239 2
        41.000          20.000
  21439268.406 8 112664133.698 8  87790235.68346  21439269.021 6  21439270.049 6
        50.000          41.000
  24133800.157 5 126823980.631 5  98823909.23941  24133801.021 1  24133801.676 1
        35.000          12.000
  24821197.187 5 130436302.058 5 101638680.76941  24821197.263 1  24821198.849 1
        38.000          17.000
 13  1 30  1 10  0.0000000  0  8G25G02G12G29G30G31G10G23
  20603850.395 8 108273992.175 8  84369363.52046  20603850.123 6  20603854.848 6
        51.000          43.000
  22476914.019 7 118117005.253 7  92039246.57744  22476913.303 4  22476913.247 4
        48.000          34.000
  22870988.116 7 120187880.246 7  93652914.02944  22870988.226 4  22870988.812 4
        47.000          32.000
  20367403.834 8 107031456.439 8  83401150.78946  20367403.631 6  20367405.796 6
        52.000          44.000
  24020996.310 6 126231185.129 6  98361979.16742  24020995.649 2  24020998.228 2
        40.000          20.000
  21434062.663 8 112636776.638 8  87768918.49146  21434063.074 6  21434064.159 6
        51.000          41.000
  24127942.483 4 126793188.176 4  98799915.15041  24127939.011 1  24127942.220 1
        33.000           2.000
  24811041.537 5 130382926.323 5 101597089.29941  24811040.948 1  24811041.115 1
        38.000          17.000
 13  1 30  1 10 30.0000000  0  8G25G02G12G29G30G31G10G23
  20612620.661 8 108320078.917 8  84405275.26246  20612620.147 6  20612624.830 6
        52.000          43.000
  22485119.035 7 118160123.355 7  92072845.08844  22485118.544 4  22485118.937 4
        48.000          34.000
  22889148.562 7 120283317.502 7  93727280.70444  22889148.550 4  22889149.885 4
        46.000          31.000
  20361115.686 8 106998414.869 8  83375404.11846  20361116.026 6  20361118.195 6
        51.000          44.000
  23999792.908 5 126119760.120 5  98275154.47842  23999792.011 2  23999796.056 2
        39.000          20.000
  21428963.694 8 112609980.792 8  87748038.61046  21428964.060 6  21428964.995 6
        50.000          41.000
  24122192.568 4 126762976.902 4  98776373.93541  24122192.342 1  24122191.485 1
        32.000           3.000
  24800979.447 5 130330048.217 5 101555885.60641  24800978.664 1  24800979.347 1
        37.000          16.000
 13  1 30  1 11  0.0000000  0  8G25G02G12G29G30G31G10G23
  20621473.109 8 108366599.354 8  84441524.95046  20621472.734 6  20621477.440 6
        51.000          43.000
  22493420.757 7 118203749.260 7  92106839.30644  22493420.398 4  22493420.025 4
        48.000          33.000
  22907348.937 7 120378960.104 7  93801807.37544  22907348.910 4  22907350.192 4
        46.000          31.000
  20354920.692 8 106965859.776 8  83350036.51746  20354921.047 6  20354923.129 6
        50.000          44.000
  23978610.226 6 126008447.668 6  98188417.53442  23978609.452 2  23978611.917 2
        40.000          20.000
  21423972.127 8 112583747.255 8  87727596.88846  21423971.932 6  21423973.149 6
        50.000          41.000
  24116554.218 4 126733348.228 4  98753286.58541  24116553.062 1  24116552.890 1
        30.000           4.000
  24791012.749 5 130277669.595 5 101515071.11041  24791010.161 1  24791009.295 1
        38.000          16.000
 13  1 30  1 11 30.0000000  0  8G25G02G12G29G30G31G10G23
  20630407.993 8 108413552.872 8  84478112.09746  20630407.612 6  20630412.358 6
        51.000          42.000
  22501819.561 7 118247881.771 7  92141228.28544  22501818.881 4  22501818.919 4
        49.000          34.000
  22925587.573 7 120474806.281 7  93876492.69744  22925587.715 4  22925589.165 4
        46.000          31.000
  20348818.553 8 106933791.470 8  83325048.22746  20348818.769 6  20348820.733 6
        52.000          44.000
  23957450.159 5 125897249.327 5  98101769.47541  23957448.950 1  23957452.591 1
        39.000          19.000
  21419087.474 8 112558077.420 8  87707594.41846  21419087.260 6  21419088.252 6
        52.000          41.000
  24111027.537 3 126704303.746 3
        29.000
  24781138.533 5 130225792.395 5 101474647.28041  24781141.061 1  24781140.077 1
        38.000          15.000
 13  1 30  1 12  0.0000000  0  8G25G02G12G29G30G31G10G23
  20639425.091 8 108460938.630 8  84515036.05646  20639424.959 6  20639429.566 6
        51.000          42.000
  22510312.807 7 118292518.945 7  92176010.49444  22510312.558 4  22510312.789 4
        46.000          34.000
  22943865.362 7 120570855.210 7  93951335.98744  22943865.353 4  22943866.447 4
        47.000          31.000
  20342808.967 8 106902211.083 8  83300440.13847  20342809.140 7  20342811.244 7
        51.000          45.000
  23936312.459 6 125786167.448 6  98015212.18942  23936311.059 1  23936313.531 2
        40.000          20.000
  21414309.904 8 112532972.348 8  87688032.02646  21414309.970 6  21414311.000 6
        51.000          41.000
  24105610.177 3 126675844.739 3
        29.000
  24771364.420 5 130174418.185 5 101434615.47041  24771362.946 1  24771362.591 1
        39.000          16.000
 13  1 30  1 12 30.0000000  0  8G25G02G12G29G30G31G10G23
  20648524.460 8 108508755.944 8  84552296.29546  20648524.236 6  20648529.084 6
        51.000          42.000
  22518903.216 7 118337659.570 7  92211185.01644  22518902.618 4  22518902.919 4
        49.000          34.000
  22962180.235 7 120667105.312 7  94026336.04344  22962180.625 4  22962182.632 4
        45.000          31.000
  20336892.302 8 106871118.294 8  83276211.98446  20336892.325 6  20336894.490 6
        52.000          44.000
  23915197.819 6 125675203.516 6  97928746.76442  23915196.264 2  23915198.374 2
        41.000          20.000
  21409640.089 8 112508433.069 8  87668910.50846  21409640.404 6  21409641.289 6
        52.000          41.000
  24100308.124 4 126647973.111 4
        30.000
  24761683.953 6 130123548.960 6 101394977.11141  24761683.588 1  24761683.273 1
        40.000          16.000
 13  1 30  1 13  0.0000000  0  9G25G02G12G29G21G30G31G10G23
  20657705.832 8 108557003.986 8  84589892.16446  20657705.407 6  20657710.295 6
        51.000          42.000
  22527589.022 7 118383301.987 7  92246750.52344  22527587.951 4  22527588.314 4
        48.000          34.000
  22980534.955 7 120763555.133 7  94101491.70144  22980534.607 4  22980536.852 4
        46.000          31.000
  20331068.681 8 106840513.448 8  83252364.05446  20331068.410 6  20331070.562 6
        53.000          44.000
  25437500.447 4 133674973.699 4
        30.000
  23894103.217 6 125564359.748 6  97842375.00842  23894102.583 2  23894105.288 2
        40.000          21.000
  21405078.225 8 112484460.650 8  87650230.69346  21405078.418 6  21405079.608 6
        52.000          41.000
  24095114.786 4 126620689.989 4
        31.000
  24752100.210 5 130073186.422 5 101355733.61241  24752100.292 1  24752099.635 1
        38.000          18.000
 13  1 30  1 13 30.0000000  0  9G25G02G12G29G21G30G31G10G23
  20666968.791 8 108605682.069 8  84627823.13046  20666968.597 6  20666973.484 6
        51.000          42.000
  22536369.165 7 118429445.077 7  92282706.18644  22536368.550 4  22536368.796 4
        47.000          33.000
  22998926.976 7 120860203.771 7  94176802.30144  22998926.344 4  22998928.218 4
        46.000          30.000
  20325337.539 8 106810396.982 8  83228896.68246  20325337.405 6  20325339.546 6
        53.000          44.000
  25417838.640 4 133571652.861 4
        30.000
  23873033.211 5 125453637.533 5  97756097.95242  23873032.773 2  23873035.205 2
        39.000          21.000
  21400624.693 8 112461056.199 8  87631993.46046  21400624.746 6  21400625.847 6
        52.000          41.000
  24090037.754 4 126593996.638 4
        31.000
  24742612.408 5 130023332.593 5 101316886.45941  24742612.987 1  24742612.822 1
        39.000          19.000
 13  1 30  1 14  0.0000000  0  9G25G02G12G29G21G30G31G10G23
  20676314.155 8 108654789.346 8  84666088.53246  20676313.558 6  20676318.257 6
        51.000          42.000
  22545244.632 7 118476086.966 7  92319050.51844  22545244.417 4  22545244.684 4
        48.000          33.000
  23017356.345 7 120957049.673 7  94252266.60344  23017355.929 4  23017357.897 4
        46.000          31.000
  20319699.411 8 106780769.066 8  83205809.99647  20319699.396 6  20319701.605 7
        53.000          45.000
  25398178.278 4 133468329.880 4
        32.000
  23851987.737 6 125343039.276 6  97669917.50442  23851986.731 2  23851989.615 2
        41.000          20.000
  21396279.778 8 112438220.619 8  87614199.50446  21396279.249 6  21396280.380 6
        53.000          41.000
  24085070.226 4 126567894.771 4
        31.000
  24733223.272 6 129973988.953 6 101278436.88641  24733223.394 1  24733223.056 1
        41.000          18.000
 13  1 30  1 14 30.0000000  0 10G25G02G12G29G21G30G31G10G05G23
  20685740.308 8 108704325.073 8  84704687.79146  20685739.919 6  20685744.543 6
        52.000          42.000
  22554215.301 7 118523226.139 7  92355782.32744  22554214.553 4  22554215.020 4
        48.000          33.000
  23035822.463 7 121054091.476 7  94327883.57044  23035822.622 4  23035824.225 4
        45.000          31.000
  20314154.313 8 106751630.021 8  83183104.24647  20314154.482 7  20314156.618 7
        51.000          45.000
  25378517.994 5 133365007.006 5
        35.000
  23830965.843 6 125232566.499 6  97583834.85142  23830964.075 2  23830966.535 2
        42.000          21.000
  21392042.331 8 112415954.960 8  87596849.64046  21392042.223 6  21392043.200 6
        51.000          41.000
  24080216.060 4 126542385.208 4
        32.000
  25250298.430 4 132691227.241 4
        34.000
  24723931.901 6 129925157.223 6 101240386.18241  24723930.889 1  24723930.442 1
        40.000          18.000
 13  1 30  1 15  0.0000000  0 10G25G02G12G29G21G30G31G10G05G23
  20695248.127 8 108754288.389 8  84743620.23946  20695247.680 6  20695252.247 6
        53.000          42.000
  22563280.045 7 118570861.275 7  92392900.60744  22563279.729 4  22563279.551 4
        48.000          34.000
  23054325.960 7 121151328.127 7  94403652.34944  23054325.931 4  23054328.036 4
        45.000          31.000
  20308702.635 8 106722980.172 8  83160779.68647  20308702.510 7  20308704.810 7
        53.000          45.000
  25358851.641 4 133261685.689 4
        33.000
  23809967.003 6 125122221.497 6  97497851.71142  23809966.809 2  23809968.979 2
        41.000          21.000
  21387913.128 8 112394260.307 8  87579944.70846  21387913.884 6  21387914.898 6
        52.000          41.000
  24075474.086 4 126517469.599 4
        32.000
  25233191.437 5 132601320.523 5 103325713.36141  25233189.146 1  25233192.989 1
        35.000          14.000
  24714736.497 6 129876839.129 6 101202735.73141  24714736.376 1  24714735.136 1
        40.000          16.000
 13  1 30  1 15 30.0000000  0 10G25G02G12G29G21G30G31G10G05G23
  20704837.148 8 108804678.612 8  84782885.33846  20704836.493 6  20704841.347 6
        51.000          43.000
  22572438.411 7 118618990.504 7  92430403.91644  22572437.937 4  22572438.281 4
        48.000          33.000
  23072866.084 7 121248758.377 7  94479571.98944  23072866.124 4  23072868.220 4
        46.000          31.000
  20303343.942 8 106694820.003 8  83138836.69847  20303343.818 7  20303346.118 7
        53.000          45.000
  25339194.473 4 133158368.386 4
        34.000
  23788993.721 6 125012005.757 6  97411969.32042  23788993.198 2  23788995.920 2
        42.000          21.000
  21383893.829 8 112373137.399 8  87563485.29746  21383894.229 6  21383895.375 6
        52.000          41.000
  24070846.446 3 126493149.283 3
        29.000
  25216119.216 5 132511606.171 5 103255806.11041  25216118.287 1  25216120.752 1
        36.000          14.000
  24705638.954 6 129829036.596 6 101165487.00641  24705639.986 1  24705638.491 1
        40.000          17.000
 13  1 30  1 16  0.0000000  0 10G25G02G12G29G21G30G31G10G05G23
  20714506.756 8 108855494.815 8  84822482.37146  20714506.530 6  20714511.278 6
        52.000          42.000
  22581690.934 7 118667612.433 7  92468291.13344  22581690.251 4  22581690.945 4
        49.000          33.000
  23091443.293 7 121346380.629 7  94555641.24544  23091443.074 4  23091445.347 4
        45.000          30.000
  20298077.966 8 106667149.242 8  83117275.06647  20298078.297 7  20298080.526 7
        51.000          45.000
  25319537.486 5 133055057.322 5
        35.000
  23768045.403 6 124901921.370 6  97326189.25842  23768045.122 2  23768046.896 2
        42.000          21.000
  21379984.396 8 112352587.379 8  87547472.29246  21379983.823 6  21379984.696 6
        51.000          41.000
  24066329.196 3 126469425.514 3
        28.000
  25199083.566 5 132422087.230 5 103186051.12141  25199083.626 1  25199085.642 1
        36.000          14.000
  24696641.621 6 129781750.988 6 101128641.08941  24696641.617 1  24696641.405 1
        40.000          18.000
 13  1 30  1 16 30.0000000  0 10G25G02G12G29G21G30G31G10G05G23
  20724257.739 8 108906736.235 8  84862410.74346  20724257.437 6  20724262.265 6
        52.000          42.000
  22591036.648 7 118716725.349 7  92506560.93944  22591036.284 4  22591036.969 4
        48.000          33.000
  23110056.459 6 121444193.540 6  94631859.07444  23110055.751 4  23110058.193 4
        44.000          30.000
  20292906.054 8 106639968.437 8  83096095.22347  20292905.959 7  20292908.084 7
        53.000          45.000
  25299879.464 4 132951754.341 4
        33.000
  23747122.846 6 124791970.419 6  97240513.20742  23747122.410 2  23747124.569 2
        41.000          22.000
  21376182.501 8 112332611.435 8  87531906.62546  21376182.442 6  21376183.443 6
        51.000          41.000
  24061931.434 4 126446299.486 4
        31.000
  25182084.486 5 132332767.065 5 103116451.09341  25182086.032 1  25182089.270 1
        35.000          15.000
  24687741.755 5 129734984.137 5 101092199.39441  24687741.131 1  24687742.320 1
        39.000          18.000
 13  1 30  1 17  0.0000000  0 10G25G02G12G29G21G30G31G10G05G23
  20734089.619 8 108958401.997 8  84902669.77746  20734089.100 6  20734093.778 6
        51.000          42.000
  22600475.776 7 118766327.728 7  92545212.14544  22600475.234 4  22600475.799 4
        46.000          32.000
  23128705.298 7 121542196.513 7  94708224.98643  23128705.753 4  23128707.786 3
        45.000          29.000
  20287826.747 8 106613277.980 8  83075297.46547  20287826.885 7  20287829.068 7
        53.000          45.000
  25280223.357 5 132848461.610 5
        35.000
  23726226.467 6 124682154.639 6  97154942.44642  23726224.831 2  23726226.948 2
        42.000          22.000
  21372490.169 8 112313209.996 8  87516788.61646  21372490.441 6  21372491.461 6
        52.000          41.000
  24057645.527 4 126423772.168 4
        33.000
  25165126.596 4 132243648.267 4 103047007.98041  25165126.647 1  25165128.828 1
        34.000          14.000
  24678940.982 6 129688737.642 6 101056163.15241  24678939.553 1  24678941.246 1
        41.000          19.000
 13  1 30  1 17 30.0000000  0 10G25G02G12G29G21G30G31G10G05G23
  20744001.472 8 109010491.311 8  84943258.84846  20744001.299 6  20744005.845 6
        51.000          42.000
  22610007.777 7 118816417.795 7  92584243.38144  22610007.685 4  22610007.392 4
        48.000          33.000
  23147390.761 6 121640388.052 6  94784737.84443  23147390.817 3  23147392.794 3
        44.000          29.000
  20282841.088 8 106587078.105 8  83054881.97947  20282841.258 7  20282843.367 7
        51.000          45.000
  25260570.554 4 132745180.654 4
        34.000
  23705353.598 6 124572476.071 6  97069478.63642  23705353.181 2  23705356.270 2
        41.000          21.000
  21368907.998 8 112294384.161 8  87502119.13446  21368908.046 6  21368909.238 6
        52.000          41.000
  24053474.827 4 126401845.150 4
        31.000
  25148205.745 5 132154733.939 5 102977724.12541  25148207.588 1  25148209.944 1
        35.000          14.000
  24670240.030 6 129643013.296 6 101020533.81042  24670239.456 2  24670239.017 2
        41.000          20.000
 13  1 30  1 18  0.0000000  0 10G25G02G12G29G21G30G31G10G05G23
  20753994.873 8 109063003.299 8  84984177.27846  20753994.144 6  20753998.797 6
        52.000          42.000
  22619631.713 7 118866993.958 7  92623653.37244  22619631.246 4  22619631.962 4
        47.000          33.000
  23166110.823 6 121738766.522 6  94861396.36043  23166111.092 3  23166113.846 3
        44.000          29.000
  20277948.770 8 106561368.676 8  83034848.66047  20277948.996 7  20277951.061 7
        53.000          45.000
  25240917.007 4 132641913.670 4
        33.000
  23684509.754 6 124462936.491 6  96984123.11442  23684508.974 2  23684511.450 2
        41.000          22.000
  21365435.562 8 112276134.706 8  87487898.77846  21365435.401 6  21365436.420 6
        53.000          41.000
  24049415.435 3 126380519.082 3
        29.000
  25131325.747 4 132066027.276 4 102908602.12141  25131327.455 1  25131331.411 1
        34.000          15.000
  24661639.060 6 129597812.698 6 100985312.58441  24661638.636 1  24661638.883 1
        40.000          18.000
 13  1 30  1 18 30.0000000  0 10G25G02G12G29G21G30G31G10G05G23
  20764067.472 8 109115937.153 8  85025424.43246  20764067.127 6  20764071.837 6
        51.000          42.000
  22629349.219 7 118918054.792 7  92663441.03144  22629348.419 4  22629348.339 4
        49.000          33.000
  23184867.726 6 121837330.734 6  94938199.60343  23184867.718 3  23184869.422 3
        44.000          29.000
  20273149.993 8 106536149.933 8  83015197.70047  20273149.948 7  20273152.179 7
        53.000          45.000
  25221269.118 4 132538663.273 4
        34.000
  23663692.296 6 124353538.248 6  96898877.71442  23663691.383 2  23663693.901 2
        41.000          22.000
  21362072.647 8 112258462.687 8  87474128.37046  21362072.624 6  21362073.425 6
        52.000          41.000
  24045469.074 4 126359795.754 4
        30.000
  25114485.811 4 131977530.994 4 102839644.04041  25114487.229 1  25114489.393 1
        34.000          15.000
  24653136.255 5 129553137.316 5 100950500.59141  24653136.542 1  24653136.678 1
        38.000          18.000
 13  1 30  1 19  0.0000000  0 10G25G02G12G29G21G30G31G10G05G23
  20774220.439 8 109169291.954 8  85066999.58746  20774220.068 6  20774224.918 6
        52.000          42.000
  22639157.398 7 118969598.475 7  92703604.95944  22639156.519 4  22639157.050 4
        48.000          33.000
  23203659.072 6 121936079.454 6  95015146.62243  23203658.745 3  23203661.175 3
        44.000          28.000
  20268444.364 8 106511422.210 8  82995929.34547  20268444.442 7  20268446.545 7
        53.000          45.000
  25201626.220 5 132435431.080 5
        35.000
  23642900.898 6 124244282.653 6  96813743.50242  23642900.655 2  23642903.280 2
        41.000          22.000
  21358819.288 8 112241368.903 8  87460808.53546  21358819.759 6  21358820.513 6
        53.000          41.000
  24041643.988 4 126339676.030 4
        32.000
  25097687.804 5 131889248.619 5 102770852.60641  25097687.398 1  25097690.395 1
        35.000          14.000
  24644736.536 5 129508988.627 5 100916099.05341  24644735.073 1  24644734.968 1
        39.000          19.000
 13  1 30  1 19 30.0000000  0  9G25G02G12G29G21G30G31G05G23
  20784453.111 8 109223066.858 8  85108902.10446  20784453.125 6  20784457.977 6
        50.000          42.000
  22649057.020 7 119021623.357 7  92744143.81144  22649056.507 4  22649057.159 4
        47.000          33.000
  23222484.539 6 122035011.364 6  95092236.38843  23222484.446 3  23222486.664 3
        44.000          28.000
  20263832.355 8 106487185.568 8  82977043.65547  20263832.361 7  20263834.511 7
        53.000          45.000
  25181984.929 5 132332218.944 5
        35.000
  23622137.626 6 124135172.386 6  96728722.52242  23622136.946 2  23622140.488 2
        41.000          22.000
  21355676.322 8 112224854.104 8  87447939.85646  21355676.876 6  21355678.010 6
        52.000          41.000
  25080929.702 5 131801183.615 5 102702230.58441  25080929.270 1  25080932.043 1
        36.000          15.000
  24636436.400 5 129465368.420 5 100882109.28541  24636435.475 1  24636435.626 1
        39.000          18.000
 13  1 30  1 20  0.0000000  0  9G25G02G12G29G21G30G31G05G23
  20794766.443 8 109277261.009 8  85151131.30546  20794766.022 6  20794770.545 6
        51.000          41.000
  22659048.946 7 119074127.546 7  92785056.16244  22659048.232 4  22659048.077 4
        49.000          33.000
  23241345.538 6 122134124.893 6  95169467.67043  23241345.432 3  23241347.835 3
        43.000          28.000
  20259313.885 8 106463440.086 8  82958540.68447  20259313.845 7  20259315.920 7
        53.000          45.000
  25162347.504 5 132229029.260 5
        35.000
  23601402.449 6 124026209.011 6  96643816.00242  23601401.435 2  23601405.317 2
        40.000          22.000
  21352644.252 8 112208919.062 8  87435522.93846  21352644.509 6  21352645.538 6
        52.000          41.000
  25064212.979 5 131713338.422 5 102633779.81541  25064213.590 1  25064216.028 1
        37.000          16.000
  24628236.060 6 129422278.048 6 100848532.38041  24628235.588 1  24628234.234 1
        40.000          19.000
 13  1 30  1 20 30.0000000  0  9G25G02G12G29G21G30G31G05G23
  20805159.147 8 109331873.522 8  85193686.50846  20805158.567 6  20805162.865 6
        51.000          41.000
  22669130.167 7 119127109.494 7  92826340.81344  22669129.679 4  22669129.850 4
        48.000          33.000
  23260240.913 7 122233419.207 7  95246839.83243  23260240.748 3  23260242.393 3
        45.000          28.000
  20254888.407 8 106440186.299 8  82940420.86047  20254888.609 7  20254890.901 7
        53.000          45.000
  25142715.824 5 132125863.930 5 102955230.34641  25142715.453 1  25142720.281 1
        35.000          12.000
  23580696.872 6 123917394.533 6  96559025.50242  23580695.121 2  23580698.307 2
        41.000          22.000
  21349722.613 8 112193564.591 8  87423558.41646  21349722.644 6  21349723.722 6
        52.000          41.000
  25047538.314 5 131625716.278 5 102565502.91041  25047539.310 1  25047542.184 1
        36.000          16.000
  24620137.360 6 129379719.172 6 100815369.63442  24620137.559 2  24620136.620 2
        41.000          20.000
 13  1 30  1 21  0.0000000  0  9G25G02G12G29G21G30G31G05G23
  20815630.552 8 109386903.421 8  85236566.93946  20815630.358 6  20815634.931 6
        51.000          42.000
  22679302.999 7 119180567.675 7  92867996.53044  22679303.080 4  22679302.910 4
        48.000          33.000
  23279170.782 7 122332892.941 7  95324351.81443  23279170.890 3  23279172.057 3
        46.000          29.000
  20250557.046 8 106417424.042 8  82922684.03747  20250557.123 7  20250559.339 7
        53.000          45.000
  25123090.340 5 132022724.720 5 102874862.12041  25123090.624 1  25123091.214 1
        36.000          11.000
  23560018.874 6 123808730.880 6  96474352.53942  23560017.541 2  23560020.154 2
        41.000          22.000
  21346911.491 8 112178791.380 8  87412046.81846  21346911.567 6  21346912.459 6
        52.000          41.000
  25030907.133 5 131538320.066 5 102497402.05841  25030907.895 1  25030910.982 1
        36.000          15.000
  24612140.425 6 129337693.172 6 100782622.09842  24612140.066 2  24612139.551 2
        42.000          20.000
 13  1 30  1 21 30.0000000  0  9G25G02G12G29G21G30G31G05G23
  20826181.774 8 109442349.922 8  85279772.00146  20826181.521 6  20826185.951 6
        51.000          42.000
  22689566.178 7 119234500.466 7  92910022.06444  22689565.479 4  22689565.989 4
        47.000          33.000
  23298133.783 6 122432544.789 6  95402002.57743  23298134.006 3  23298135.292 3
        44.000          29.000
  20246318.944 8 106395153.382 8  82905330.28047  20246319.074 7  20246321.368 7
        51.000          45.000
  25103468.914 4 131919613.804 4 102794515.94441  25103468.581 1  25103472.055 1
        34.000          11.000
  23539368.794 6 123700220.430 6  96389798.91842  23539368.246 2  23539370.596 2
        41.000          22.000
  21344211.022 7 112164600.447 7  87400988.94646  21344210.990 6  21344211.961 6
        49.000          41.000
  25014321.624 5 131451153.175 5 102429479.81841  25014321.809 1  25014322.792 1
        37.000          15.000
  24604244.791 6 129296201.484 6 100750290.91642  24604245.490 2  24604244.071 2
        42.000          20.000
 13  1 30  1 22  0.0000000  0  9G25G02G12G29G21G30G31G05G23
  20836812.095 8 109498212.042 8  85323300.91846  20836811.670 6  20836816.275 6
        51.000          42.000
  22699919.481 7 119288905.748 7  92952415.80144  22699918.840 4  22699918.630 4
        47.000          32.000
  23317130.887 6 122532373.204 6  95479790.93543  23317130.710 3  23317132.074 3
        43.000          28.000
  20242174.935 8 106373374.495 8  82888359.72247  20242174.875 7  20242176.957 7
        53.000          46.000
  25083854.525 5 131816533.713 5 102714193.80241  25083853.118 1  25083857.076 1
        35.000          11.000
  23518749.234 6 123591864.784 6  96305365.96542  23518749.254 2  23518752.235 2
        41.000          22.000
  21341621.305 8 112150992.194 8  87390385.11146  21341621.502 6  21341622.544 6
        52.000          41.000
  24997777.968 5 131364218.538 5 102361738.55841  24997776.206 1  24997781.211 1
        35.000          15.000
  24596449.888 6 129255245.718 6 100718377.32442  24596450.243 2  24596449.613 2
        41.000          20.000
 13  1 30  1 22 30.0000000  0  9G25G02G12G29G21G30G31G05G23
  20847521.379 8 109554488.919 8  85367153.02446  20847520.753 6  20847525.221 6
        51.000          41.000
  22710361.677 7 119343781.732 7  92995176.30944  22710361.145 4  22710361.532 4
        48.000          33.000
  23336160.082 6 122632377.099 6  95557716.02243  23336160.881 3  23336162.141 3
        44.000          28.000
  20238124.451 8 106352087.388 8  82871772.37247  20238124.083 7  20238126.132 7
        54.000          46.000
  25064246.089 5 131713485.931 5 102633896.81241  25064243.953 1  25064246.062 1
        35.000           9.000
  23498160.364 6 123483666.102 6  96221055.32242  23498159.235 2  23498162.006 2
        41.000          23.000
  21339143.074 8 112137967.465 8  87380235.97146  21339142.785 6  21339143.972 6
        52.000          41.000
  24981277.882 5 131277519.337 5 102294180.81241  24981278.374 1  24981283.445 1
        36.000          15.000
  24588758.744 5 129214827.320 5 100686882.46741  24588759.074 1  24588758.686 1
        39.000          19.000
 13  1 30  1 23  0.0000000  0  9G25G02G12G29G21G30G31G05G23
  20858308.872 8 109611179.555 8  85411327.54146  20858308.449 6  20858313.205 6
        51.000          41.000
  22720893.383 7 119399126.928 7  93038302.43244  22720893.213 4  22720893.482 4
        46.000          33.000
  23355224.538 7 122732555.056 7  95635776.73943  23355224.317 3  23355225.399 3
        46.000          28.000
  20234166.749 8 106331292.302 8  82855568.41047  20234166.931 7  20234168.925 7
        52.000          46.000
  25044641.643 5 131610472.583 5 102553626.66641  25044640.123 1  25044642.151 1
        35.000          11.000
  23477601.744 6 123375626.354 6  96136868.49142  23477600.209 2  23477603.618 2
        42.000          24.000
  21336775.019 8 112125526.761 8  87370541.90746  21336775.512 6  21336776.743 6
        52.000          41.000
  24964825.375 5 131191058.407 5 102226808.70041  24964826.094 1  24964827.548 1
        37.000          15.000
  24581169.874 5 129174947.452 5 100655807.26841  24581169.597 1  24581169.851 1
        39.000          19.000
 13  1 30  1 23 30.0000000  0  9G25G02G12G29G21G30G31G05G23
  20869175.157 8 109668283.112 8  85455823.81046  20869174.892 6  20869179.654 6
        50.000          41.000
  22731514.594 7 119454939.338 7  93081792.61544  22731514.082 4  22731514.327 4
        45.000          32.000
  23374319.858 6 122832905.728 6  95713972.03443  23374319.803 3  23374321.785 3
        44.000          29.000
  20230303.604 8 106310989.252 8  82839747.85747  20230303.385 7  20230305.411 7
        52.000          45.000
  25025045.895 5 131507495.855 5 102473385.04441  25025046.649 1  25025044.654 1
        35.000          10.000
  23457071.817 6 123267747.807 6  96052807.29142  23457072.079 2  23457074.413 2
        41.000          24.000
  21334519.197 8 112113670.850 8  87361303.53746  21334519.397 6  21334520.589 6
        50.000          41.000
  24948417.566 5 131104838.703 5 102159624.55941  24948418.239 1  24948419.776 1
        37.000          15.000
  24573683.573 5 129135607.854 5 100625153.05441  24573683.635 1  24573683.350 1
        38.000          19.000
 13  1 30  1 24  0.0000000  0  9G25G02G12G29G21G30G31G05G23
  20880119.872 8 109725798.544 8  85500641.02646  20880119.693 6  20880124.469 6
        51.000          41.000
  22742223.721 7 119511217.247 7  93125645.53644  22742223.241 4  22742223.172 4
        46.000          32.000
  23393449.131 6 122933427.858 6  95792300.94343  23393448.629 3  23393450.489 3
        44.000          28.000
  20226533.532 8 106291178.102 8  82824310.59947  20226533.422 7  20226535.475 7
        53.000          46.000
  25005455.809 4 131404557.622 4 102393173.42941  25005456.312 1  25005459.169 1
        34.000          11.000
  23436574.382 6 123160032.005 6  95968872.90842  23436573.601 2  23436577.131 2
        42.000          24.000
  21332375.026 8 112102400.570 8  87352521.49446  21332374.923 6  21332375.812 6
        52.000          42.000
  24932058.428 5 131018863.493 5 102092630.93441  24932059.400 1  24932060.214 1
        37.000          15.000
  24566300.837 6 129096809.704 6 100594920.70241  24566300.963 1  24566300.461 1
        40.000          19.000
 13  1 30  1 24 30.0000000  0  9G25G02G12G29G21G30G31G05G23
  20891142.969 8 109783724.996 8  85545778.51646  20891142.849 6  20891147.536 6
        50.000          41.000
  22753021.333 7 119567958.992 7  93169859.87744  22753020.910 4  22753021.234 4
        47.000          32.000
  23412609.192 6 123034120.277 6  95870762.52743  23412609.445 3  23412612.115 3
        44.000          28.000
  20222857.291 8 106271859.095 8  82809256.83047  20222857.107 7  20222859.253 7
        53.000          46.000
  24985875.332 4 131301660.289 4 102312993.71841  24985876.790 1  24985874.440 1
        34.000          11.000
  23416108.698 6 123052481.469 6  95885067.30542  23416107.057 2  23416110.293 2
        41.000          24.000
  21330341.682 8 112091716.292 8  87344196.08246  21330341.673 6  21330342.666 6
        52.000          41.000
  24915745.585 5 130933136.100 5 102025830.38741  24915744.918 1  24915747.362 1
        37.000          17.000
  24559022.259 6 129058554.561 6 100565111.54042  24559020.730 2  24559021.261 2
        40.000          21.000
 13  1 30  1 25  0.0000000  0  9G25G02G12G29G21G30G31G05G23
  20902244.214 8 109842061.436 8  85591235.47746  20902243.963 6  20902248.642 6
        51.000          41.000
  22763906.780 7 119625162.673 7  93214434.16544  22763906.257 4  22763906.245 4
        47.000          31.000
  23431802.267 6 123134981.541 6  95949355.68343  23431802.718 3  23431804.849 3
        43.000          28.000
  20219274.474 8 106253032.309 8  82794586.60747  20219274.442 7  20219276.549 7
        53.000          46.000
  24966303.663 5 131198805.564 5 102232847.16641  24966302.872 1  24966305.988 1
        36.000          10.000
  23395674.726 6 122945098.041 6  95801391.90142  23395673.552 2  23395676.116 2
        43.000          24.000
  21328419.835 8 112081618.464 8  87336327.63846  21328420.066 6  21328421.203 6
        52.000          41.000
  24899478.134 5 130847659.270 5 101959225.14741  24899479.882 1  24899482.011 1
        37.000          16.000
  24551846.300 6 129020843.651 6 100535726.41242  24551845.852 2  24551845.360 2
        43.000          21.000
 13  1 30  1 25 30.0000000  0  9G25G02G12G29G21G30G31G05G23
  20913423.398 8 109900806.956 8  85637011.20146  20913422.925 6  20913427.312 6
        52.000          41.000
  22774879.897 7 119682826.494 7  93259367.01244  22774879.564 4  22774879.712 4
        47.000          32.000
  23451028.222 6 123236010.799 6  96028079.76043  23451028.106 3  23451030.053 3
        43.000          28.000
  20215785.787 8 106234697.710 8  82780299.91147  20215785.523 7  20215787.636 7
        53.000          46.000
  24946738.634 5 131095995.558 5 102152735.47741  24946737.641 1  24946743.905 1
        35.000          11.000
  23375274.148 6 122837883.564 6  95717848.15642  23375271.684 2  23375274.151 2
        43.000          24.000
  21326610.473 8 112072107.909 8  87328916.81546  21326610.519 6  21326611.465 6
        51.000          41.000
  24883261.519 5 130762436.267 5 101892817.63941  24883259.856 1  24883266.264 1
        35.000          16.000
  24544774.093 6 128983678.379 6 100506766.48342  24544772.609 2  24544772.915 2
        42.000          20.000
 13  1 30  1 26  0.0000000  0  9G25G02G12G29G21G30G31G05G23
  20924679.656 8 109959960.551 8  85683104.90246  20924679.466 6  20924684.042 6
        51.000          41.000
  22785939.459 7 119740948.693 7  93304657.04544  22785939.932 4  22785939.681 4
        48.000          32.000
  23470284.463 6 123337206.337 6  96106933.38043  23470284.813 3  23470287.170 3
        43.000          28.000
  20212390.031 8 106216855.192 8  82766396.65147  20212390.206 7  20212392.314 7
        54.000          46.000
  24927184.902 5 130993232.396 5 102072660.30441  24927183.658 1  24927187.499 1
        36.000          13.000
  23354903.894 6 122730840.244 6  95634437.77742  23354902.003 2  23354904.740 2
        43.000          24.000
  21324912.358 8 112063185.039 8  87321963.92446  21324912.311 6  21324913.502 6
        52.000          41.000
  24867091.274 5 130677469.983 5 101826610.22541  24867092.839 1  24867095.716 1
        36.000          16.000
  24537805.242 6 128947059.599 6 100478232.33542  24537804.053 2  24537805.254 2
        40.000          20.000
 13  1 30  1 26 30.0000000  0  9G25G02G12G29G21G30G31G05G23
  20936013.768 8 110019521.282 8  85729515.85646  20936013.611 6  20936018.219 6
        51.000          41.000
  22797086.955 7 119799527.370 7  93350302.76344  22797086.329 4  22797087.017 4
        46.000          31.000
  23489572.410 6 123438567.106 6  96185915.76943  23489572.887 3  23489575.768 3
        42.000          27.000
  20209088.416 8 106199504.773 8  82752876.84447  20209088.540 7  20209090.716 7
        53.000          46.000
  24907638.653 5 130890518.055 5 101992623.16641  24907637.956 1  24907639.893 1
        36.000          13.000
  23334565.912 6 122623970.454 6  95551162.63442  23334565.541 2  23334567.402 2
        43.000          24.000
  21323326.335 8 112054850.522 8  87315469.49246  21323326.338 6  21323327.443 6
        52.000          41.000
  24850974.342 5 130592763.475 5 101760605.19141  24850973.560 1  24850976.307 1
        37.000          16.000
  24530942.469 6 128910989.186 6 100450125.53941  24530940.809 1  24530939.519 1
        40.000          19.000
 13  1 30  1 27  0.0000000  0  9G25G02G12G29G21G30G31G05G23
  20947425.182 8 110079488.097 8  85776243.23346  20947425.002 6  20947429.554 6
        52.000          41.000
  22808320.996 7 119858560.494 7  93396302.58444  22808320.581 4  22808321.226 4
        47.000          32.000
  23508892.647 6 123540091.431 6  96265025.60243  23508892.993 3  23508894.878 3
        42.000          27.000
  20205880.346 8 106182646.044 8  82739740.17747  20205880.512 7  20205882.545 7
        54.000          46.000
  24888102.983 5 130787854.533 5 101912625.62441  24888101.485 1  24888103.030 1
        36.000          11.000
  23314262.585 6 122517275.725 6  95468023.86942  23314262.179 2  23314264.563 2
        43.000          24.000
  21321851.902 8 112047104.832 8  87309433.89046  21321852.351 6  21321853.355 6
        52.000          42.000
  24834905.407 5 130508319.623 5 101694804.81441  24834902.884 1  24834905.810 1
        37.000          16.000
  24524182.078 6 128875468.214 6 100422446.84442  24524181.609 2  24524180.420 2
        42.000          20.000
 13  1 30  1 27 30.0000000  0 10G25G02G12G29G21G30G31G10G05G23
  20958913.323 8 110139860.091 8  85823286.33346  20958913.398 6  20958918.115 6
        51.000          41.000
  22819641.069 7 119918046.132 7  93442655.04544  22819639.892 4  22819640.560 4
        47.000          31.000
  23528242.569 6 123641778.328 6  96344262.12643  23528242.492 3  23528245.010 3
        43.000          26.000
  20202766.184 8 106166279.643 8  82726987.14047  20202766.032 7  20202768.040 7
        53.000          46.000
  24868577.231 5 130685243.996 5 101832669.36641  24868575.476 1  24868577.106 1
        37.000          13.000
  23293993.531 6 122410758.427 6  95385023.37843  23293992.506 3  23293995.607 3
        42.000          25.000
  21320490.402 8 112039948.677 8  87303857.65946  21320490.598 6  21320491.659 6
        50.000          41.000
  23994309.311 4 126090972.516 4
        31.000
  24818885.337 5 130424141.755 5 101629211.70741  24818886.693 1  24818889.039 1
        36.000          17.000
  24517526.813 6 128840497.703 6 100395197.09741  24517525.785 2  24517525.267 1
        41.000          19.000
 13  1 30  1 28  0.0000000  0 10G25G02G12G29G21G30G31G10G05G23
  20970479.014 8 110200636.146 8  85870644.28646  20970478.556 6  20970483.311 6
        52.000          41.000
  22831046.106 7 119977982.690 7  93489358.86144  22831045.766 4  22831046.334 4
        46.000          31.000
  23547624.401 6 123743626.380 6  96423624.21343  23547624.306 3  23547625.857 3
        44.000          27.000
  20199744.954 8 106150405.158 8  82714617.41447  20199745.213 7  20199747.135 7
        53.000          46.000
  24849060.045 5 130582688.287 5 101752755.83541  24849059.790 1  24849061.323 1
        35.000          11.000
  23273758.711 6 122304420.678 6  95302162.79042  23273756.404 2  23273759.220 2
        43.000          24.000
  21319240.972 8 112033382.024 8  87298740.77746  21319240.968 6  21319242.053 6
        52.000          41.000
  23992579.363 4 126081878.624 4
        31.000
  24802918.590 5 130340232.647 5 101563828.01741  24802919.535 1  24802921.686 1
        37.000          17.000
  24510976.798 6 128806079.173 6 100368377.49742  24510975.489 2  24510975.915 2
        41.000          20.000
 13  1 30  1 28 30.0000000  0 10G25G02G12G29G21G30G31G10G05G23
  20982121.387 8 110261815.381 8  85918316.40946  20982120.652 6  20982125.251 6
        51.000          41.000
  22842537.042 7 120038368.517 7  93536412.74644  22842536.624 4  22842536.973 4
        46.000          31.000
  23567035.093 6 123845634.197 6  96503110.79943  23567035.879 3  23567037.814 3
        43.000          27.000
  20196818.214 8 106135022.727 8  82702631.10947  20196818.039 7  20196819.973 7
        54.000          46.000
  24829555.695 5 130480189.975 5 101672887.04141  24829555.226 1  24829559.539 1
        35.000          13.000
  23253556.855 6 122198264.425 6  95219443.65343  23253555.837 3  23253558.565 3
        42.000          25.000
  21318103.727 8 112027405.454 8  87294083.70746  21318103.649 6  21318104.831 6
        52.000          41.000
  23990966.061 4 126073404.830 4
        33.000
  24787002.749 5 130256595.586 5 101498656.28941  24787003.860 1  24787005.925 1
        38.000          17.000
  24504532.788 6 128772213.561 6 100341988.69842  24504532.968 2  24504532.498 2
        42.000          20.000
 13  1 30  1 29  0.0000000  0 10G25G02G12G29G21G30G31G10G05G23
  20993839.297 8 110323396.659 8  85966301.80746  20993839.221 6  20993843.781 6
        50.000          41.000
  22854112.989 7 120099201.268 7  93583814.88044  22854112.395 4  22854113.431 4
        46.000          31.000
  23586477.663 6 123947800.639 6  96582720.98543  23586477.668 3  23586479.294 3
        44.000          27.000
  20193984.832 8 106120132.420 8  82691028.27447  20193984.512 7  20193986.635 7
        53.000          46.000
  24810063.363 5 130377750.703 5 101593064.26141  24810062.887 1  24810063.483 1
        37.000          13.000
  23233389.933 6 122092291.702 6  95136867.49743  23233390.239 3  23233393.102 3
        43.000          25.000
  21317078.998 8 112022019.575 8  87289886.91146  21317078.925 6  21317080.060 6
        50.000          41.000
  23989471.922 4 126065551.340 4
        32.000
  24771140.093 5 130173233.579 5 101433698.88641  24771139.787 1  24771143.094 1
        38.000          17.000
  24498193.877 6 128738902.092 6 100316031.68442  24498194.062 1  24498192.562 2
        42.000          20.000
 13  1 30  1 29 30.0000000  0 10G25G02G12G29G21G30G31G10G05G23
  21005634.345 8 110385379.077 8  86014599.78746  21005634.067 6  21005638.682 6
        51.000          41.000
  22865773.657 7 120160479.145 7  93631563.88744  22865773.581 4  22865773.971 4
        46.000          30.000
  23605948.774 6 124050124.478 6  96662453.83043  23605949.270 3  23605951.264 3
        43.000          26.000
  20191244.322 8 106105734.039 8  82679808.76547  20191244.630 7  20191246.674 7
        54.000          46.000
  24790580.225 5 130275372.615 5 101513289.15341  24790579.211 1  24790583.109 1
        36.000          13.000
  23213259.562 6 121986505.031 6  95054436.33443  23213258.637 3  23213262.828 3
        42.000          25.000
  21316166.153 8 112017224.793 8  87286150.72046  21316166.426 6  21316167.505 6
        52.000          41.000
  23988095.686 4 126058318.860 4
        33.000
  24755328.470 5 130090149.691 5 101368958.26941  24755329.319 1  24755331.712 1
        37.000          18.000
  24491961.014 6 128706146.038 6 100290507.53042  24491959.859 2  24491959.622 2
        42.000          20.000
 13  1 30  1 30  0.0000000  0 10G25G02G12G29G21G30G31G10G05G23
  21017505.159 8 110447761.488 8  86063209.44346  21017504.998 6  21017509.790 6
        51.000          41.000
  22877518.523 7 120222200.251 7  93679658.24644  22877518.396 4  22877518.701 4
        46.000          30.000
  23625450.572 6 124152604.288 6  96742308.18943  23625450.337 3  23625452.565 3
        43.000          26.000
  20188598.334 8 106091827.146 8  82668972.22347  20188598.012 7  20188600.318 7
        54.000          46.000
  24771110.370 5 130173057.577 5 101433563.16841  24771108.714 1  24771111.107 1
        37.000          14.000
  23193165.471 6 121880905.851 6  94972151.25243  23193164.376 3  23193166.844 3
        43.000          26.000
  21315366.510 8 112013021.325 8  87282875.28546  21315366.589 6  21315367.540 6
        51.000          41.000
  23986837.594 4 126051708.117 4
        31.000
  24739572.358 5 130007347.061 5 101304436.75841  24739573.059 1  24739575.456 1
        37.000          17.000
  24485833.813 6 128673946.651 6 100265417.11742  24485832.838 2  24485832.201 2
        42.000          20.000
 13  1 30  1 30 30.0000000  0 10G25G02G12G29G21G30G31G10G05G23
  21029452.300 8 110510542.983 8  86112130.07646  21029451.743 6  21029456.673 6
        51.000          41.000
  22889347.447 7 120284362.738 7  93728096.55144  22889347.515 4  22889348.363 4
        47.000          31.000
  23644981.323 6 124255238.593 6  96822282.95243  23644980.792 3  23644983.148 3
        43.000          26.000
  20186045.293 8 106078411.885 8  82658518.77847  20186045.268 7  20186047.494 7
        53.000          46.000
  24751652.944 5 130070808.101 5 101353888.28241  24751653.055 1  24751652.943 1
        37.000          14.000
  23173106.611 6 121775496.997 6  94890014.48943  23173106.113 3  23173108.597 3
        43.000          25.000
  21314678.851 8 112009409.486 8  87280060.85946  21314679.179 6  21314680.276 6
        52.000          42.000
  23985699.247 4 126045719.879 4
        34.000
  24723869.808 5 129924828.512 5 101240136.57741  24723869.964 1  24723872.363 1
        38.000          17.000
  24479811.746 6 128642305.060 6 100240761.34242  24479811.480 2  24479812.071 2
        41.000          20.000
 13  1 30  1 31  0.0000000  0  9G25G02G12G29G21G30G31G05G23
  21041474.662 8 110573722.380 8  86161360.76046  21041474.600 6  21041479.347 6
        51.000          41.000
  22901261.423 7 120346964.507 7  93776877.14944  22901260.577 4  22901261.613 4
        45.000          31.000
  23664540.017 6 124358026.288 6  96902377.22743  23664539.977 3  23664543.177 3
        42.000          26.000
  20183585.994 8 106065488.199 8  82648448.37647  20183586.002 7  20183588.064 7
        54.000          46.000
  24732207.267 5 129968625.566 5 101274265.57041  24732205.005 1  24732208.921 1
        37.000          14.000
  23153084.539 6 121670280.033 6  94808027.25643  23153084.254 3  23153086.988 3
        44.000          26.000
  21314104.191 8 112006389.678 8  87277707.75746  21314104.569 6  21314105.438 6
        52.000          41.000
  24708221.803 5 129842596.703 5 101176059.87441  24708221.624 1  24708223.383 1
        38.000          17.000
  24473897.654 6 128611221.812 6 100216540.63941  24473897.095 1  24473896.183 1
        41.000          19.000
 13  1 30  1 31 30.0000000  0 10G25G02G12G29G21G30G31G10G05G23
  21053573.022 8 110637298.749 8  86210900.77946  21053572.734 6  21053577.568 6
        52.000          40.000
  22913257.072 7 120410003.752 7  93825998.61744  22913256.209 4  22913257.161 4
        46.000          30.000
  23684129.985 6 124460966.118 6  96982590.03943  23684129.935 3  23684131.260 3
        43.000          26.000
  20181220.005 8 106053055.752 8  82638760.75947  20181220.176 7  20181222.230 7
        53.000          46.000
  24712775.812 5 129866512.332 5 101194696.87241  24712774.177 1  24712779.539 1
        36.000          13.000
  23133099.304 6 121565257.197 6  94726191.28343  23133098.803 3  23133101.611 3
        44.000          26.000
  21313642.679 8 112003962.514 8  87275816.46346  21313642.747 6  21313643.637 6
        52.000          41.000
  23983771.895 4 126035567.093 4
        32.000
  24692628.889 5 129760655.353 5 101112209.50941  24692629.147 1  24692631.585 1
        38.000          18.000
  24468089.926 6 128580698.643 6 100192756.36642  24468088.346 2  24468087.510 2
        41.000          20.000
 13  1 30  1 32  0.0000000  0 10G25G02G12G29G21G30G31G10G05G23
  21065746.260 8 110701270.934 8  86260749.22546  21065745.985 6  21065751.112 6
        51.000          41.000
  22925335.595 7 120473478.510 7  93875459.48744  22925334.961 4  22925336.003 4
        45.000          30.000
  23703746.138 6 124564056.647 6  97062920.29943  23703746.259 3  23703748.973 3
        42.000          25.000
  20178947.752 8 106041114.530 8  82629455.91547  20178947.824 7  20178949.910 7
        54.000          47.000
  24693357.360 5 129764470.707 5 101115183.91241  24693355.904 1  24693359.802 1
        36.000          13.000
  23113152.111 6 121460430.784 6  94644508.36043  23113150.968 3  23113153.723 3
        44.000          26.000
  21313293.562 8 112002127.991 8  87274386.96146  21313293.671 6  21313294.671 6
        52.000          41.000
  23982993.021 5 126031447.989 5
        36.000
  24677091.710 5 129679006.970 5 101048587.41641  24677091.076 1  24677093.660 1
        38.000          17.000
  24462387.129 6 128550736.352 6 100169409.12642  24462387.042 2  24462387.363 2
        42.000          20.000
 13  1 30  1 32 30.0000000  0 10G25G02G12G29G21G30G31G10G05G23
  21077994.856 8 110765637.928 8  86310905.31646  21077994.820 6  21077999.679 6
        51.000          40.000
  22937496.404 7 120537386.778 7  93925258.12744  22937496.371 4  22937496.983 4
        46.000          30.000
  23723393.404 6 124667296.691 6  97143367.04943  23723392.230 3  23723394.591 3
        41.000          25.000
  20176769.103 8 106029663.813 8  82620533.27847  20176768.917 7  20176770.903 7
        54.000          46.000
  24673953.969 5 129662502.272 5 101035728.03741  24673953.706 1  24673957.390 1
        36.000          14.000
  23093241.101 6 121355802.673 6  94562979.97443  23093240.559 3  23093242.438 3
        42.000          26.000
  21313057.002 8 112000886.521 8  87273419.58146  21313057.468 6  21313058.347 6
        52.000          41.000
  23982323.727 4 126027952.568 4
        30.000
  24661611.013 5 129597654.845 5 100985196.17241  24661610.629 1  24661613.705 1
        38.000          19.000
  24456791.874 6 128521335.925 6 100146499.69942  24456791.680 2  24456792.368 2
        41.000          20.000
 13  1 30  1 33  0.0000000  0 10G25G02G12G29G21G30G31G10G05G23
  21090318.546 7 110830398.612 7  86361368.17346  21090318.239 6  21090323.181 6
        49.000          41.000
  22949740.264 7 120601726.612 7  93975393.06644  22949739.934 3  22949740.609 4
        46.000          30.000
  23743066.312 6 124770684.674 6  97223929.07943  23743066.777 3  23743069.555 3
        42.000          25.000
  20174683.508 8 106018704.534 8  82611993.58247  20174683.406 7  20174685.461 7
        52.000          47.000
  24654565.476 5 129560609.368 5 100956330.99341  24654564.944 1  24654566.076 1
        37.000          13.000
  23073369.269 6 121251375.298 6  94481607.98143  23073368.554 3  23073371.811 3
        43.000          26.000
  21312933.901 8 112000238.189 8  87272914.38246  21312934.101 6  21312935.021 6
        50.000          41.000
  23981781.728 3 126025081.532 3
        29.000
  24646186.300 5 129516602.342 5 100922038.37441  24646186.211 1  24646188.072 1
        38.000          19.000
  24451304.137 6 128492498.291 6 100124028.78142  24451305.110 1  24451303.802 2
        41.000          20.000
 13  1 30  1 33 30.0000000  0 10G25G02G12G29G21G30G31G10G05G23
  21102717.010 8 110895551.950 8  86412137.00146  21102716.526 6  21102721.525 6
        51.000          40.000
  22962065.430 7 120666496.253 7  94025862.91544  22962065.314 4  22962065.910 4
        46.000          30.000
  23762768.819 6 124874219.540 6  97304605.58143  23762768.591 3  23762771.782 3
        41.000          25.000
  20172691.214 8 106008235.964 8  82603836.25847  20172691.346 7  20172693.403 7
        54.000          46.000
  24635189.578 5 129458794.126 5 100876994.48341  24635188.937 1  24635192.116 1
        36.000          14.000
  23053536.091 6 121147150.918 6  94400394.19343  23053535.554 3  23053537.822 3
        43.000          26.000
  21312923.426 8 112000183.410 8  87272871.69846  21312923.597 6  21312924.673 6
        52.000          41.000
  23981353.235 3 126022835.307 3
        28.000
  24630821.038 5 129435851.600 5 100859115.71841  24630821.169 1  24630823.071 1
        39.000          19.000
  24445923.697 6 128464224.464 6 100101997.25842  24445923.558 2  24445922.568 2
        40.000          20.000
 13  1 30  1 34  0.0000000  0 10G25G02G12G29G21G30G31G10G05G23
  21115189.639 8 110961096.777 8  86463210.88646  21115189.303 6  21115194.085 6
        51.000          41.000
  22974472.378 7 120731693.474 7  94076665.91044  22974471.823 4  22974472.820 4
        46.000          30.000
  23782499.586 6 124977899.923 6  97385395.48443  23782498.695 3  23782500.507 3
        42.000          25.000
  20170792.347 8 105998257.784 8  82596061.05647  20170792.410 7  20170794.468 7
        54.000          46.000
  24615832.170 5 129357058.517 5 100797719.99441  24615830.536 1  24615832.805 1
        37.000          13.000
  23033742.993 7 121043131.097 7  94319339.77943  23033741.429 3  23033744.432 3
        45.000          26.000
  21313026.456 8 112000722.159 8  87273291.50446  21313026.062 6  21313027.121 6
        52.000          41.000
  23981042.402 4 126021213.894 4
        31.000
  24615513.154 5 129355405.997 5 100796430.83341  24615512.354 1  24615514.489 1
        39.000          19.000
  24440650.456 5 128436515.500 5 100080405.87641  24440650.687 1  24440649.791 1
        39.000          19.000
 13  1 30  1 34 30.0000000  0 10G25G02G12G29G21G30G31G10G05G23
  21127736.748 8 111027032.073 8  86514589.02846  21127736.411 6  21127741.414 6
        50.000          40.000
  22986960.016 7 120797316.119 7  94127800.45244  22986959.595 4  22986959.923 4
        46.000          30.000
  23802255.771 6 125081724.523 6  97466297.72043  23802256.155 3  23802258.660 3
        41.000          26.000
  20168987.015 8 105988770.242 8  82588668.16847  20168986.995 7  20168989.114 7
        53.000          47.000
  24596485.768 5 129255404.685 5 100718509.27841  24596486.030 1  24596488.830 1
        36.000          14.000
  23013987.340 6 120939318.327 6  94238446.71143  23013986.285 3  23013988.194 3
        43.000          27.000
  21313241.226 8 112001854.717 8  87274174.01146  21313241.552 6  21313242.741 6
        52.000          41.000
  23980853.276 4 126020217.780 4
        31.000
  24600261.857 5 129275268.425 5 100733985.98641  24600262.166 2  24600265.720 1
        38.000          19.000
  24435486.939 6 128409372.350 6 100059255.37241  24435485.416 1  24435485.418 1
        41.000          19.000
 13  1 30  1 35  0.0000000  0 10G25G02G12G29G21G30G31G10G05G23
  21140358.023 8 111093356.729 8  86566270.56746  21140357.638 6  21140362.388 6
        51.000          40.000
  22999527.730 7 120863362.151 7  94179264.91643  22999527.296 3  22999527.735 3
        45.000          29.000
  23822041.639 6 125185692.077 6  97547311.37043  23822041.077 3  23822042.603 3
        43.000          25.000
  20167274.943 8 105979772.910 8  82581657.25947  20167274.872 7  20167276.971 7
        54.000          47.000
  24577157.368 5 129153834.441 5 100639363.70141  24577157.979 1  24577161.472 1
        37.000          14.000
  22994272.465 6 120835714.983 6  94157716.82943  22994271.488 3  22994274.474 3
        44.000          27.000
  21313570.275 8 112003581.220 8  87275519.32846  21313570.003 6  21313571.345 6
        53.000          41.000
  23980785.704 4 126019847.119 4
        34.000
  24585071.294 5 129195442.176 5 100671783.72341  24585072.277 2  24585074.168 1
        39.000          19.000
  24430429.178 6 128382795.860 6 100038546.42042  24430428.493 2  24430428.706 2
        42.000          20.000
 13  1 30  1 35 30.0000000  0 10G25G02G12G29G21G30G31G10G05G23
  21153053.321 8 111160069.631 8  86618254.63746  21153052.847 6  21153057.447 6
        50.000          40.000
  23012176.748 7 120929829.891 7  94231057.96144  23012176.036 4  23012176.481 4
        45.000          30.000
  23841853.428 6 125289801.485 6  97628435.56143  23841852.885 3  23841853.761 3
        44.000          25.000
  20165655.652 8 105971264.962 8  82575027.69447  20165655.887 7  20165657.944 7
        53.000          46.000
  24557845.638 5 129052349.967 5 100560284.90441  24557845.285 1  24557847.922 1
        36.000          15.000
  22974597.777 6 120732323.026 6  94077151.66943  22974596.702 3  22974598.953 3
        44.000          27.000
  21314011.400 8 112005901.830 8  87277327.59546  21314011.672 6  21314012.855 6
        51.000          41.000
  23980829.312 4 126020102.498 4
        32.000
  24569942.336 6 129115930.112 6 100609826.29742  24569941.938 2  24569943.068 2
        40.000          20.000
  24425479.982 6 128356786.951 6 100018279.70241  24425479.171 1  24425478.463 1
        41.000          19.000
 13  1 30  1 36  0.0000000  0 10G25G02G12G29G21G30G31G10G05G23
  21165822.003 8 111227169.612 8  86670540.32346  21165821.423 6  21165826.092 6
        50.000          40.000
  23024904.641 7 120996717.132 7  94283177.85744  23024904.378 4  23024904.760 4
        46.000          30.000
  23861689.427 6 125394051.118 6  97709669.01543  23861690.507 3  23861691.839 3
        42.000          25.000
  20164129.761 8 105963246.828 8  82568779.79747  20164130.107 7  20164132.172 7
        53.000          47.000
  24538552.060 5 128950953.246 5 100481274.50341  24538550.862 1  24538553.491 1
        36.000          15.000
  22954962.676 6 120629144.466 6  93996752.79143  22954962.065 3  22954964.839 3
        44.000          27.000
  21314566.504 8 112008816.704 8  87279598.92846  21314566.436 6  21314567.376 6
        50.000          41.000
  23980997.965 4 126020983.877 4
        30.000
  24554871.287 5 129036735.082 5 100548115.89242  24554872.227 2  24554874.384 2
        38.000          21.000
  24420638.856 6 128331346.493 6  99998455.98341  24420637.709 1  24420637.335 1
        42.000          19.000
 13  1 30  1 36 30.0000000  0 10G25G02G12G29G21G30G31G10G05G23
  21178664.144 8 111294655.587 8  86723126.78946  21178663.673 6  21178668.134 6
        51.000          40.000
  23037712.833 7 121064021.697 7  94335622.97644  23037712.135 4  23037712.324 4
        46.000          30.000
  23881554.717 6 125498439.312 6  97791010.44242  23881553.962 3  23881556.058 2
        42.000          24.000
  20162697.541 8 105955718.342 8  82562913.44647  20162697.477 7  20162699.660 7
        54.000          47.000
  24519272.415 5 128849645.713 5 100402333.66341  24519271.525 1  24519276.077 1
        36.000          15.000
  22935369.917 7 120526181.864 7  93916522.19143  22935368.908 3  22935371.984 3
        45.000          27.000
  21315234.874 8 112012325.705 8  87282333.21446  21315234.245 6  21315235.144 6
        52.000          41.000
  23981290.784 4 126022491.284 4
        32.000
  24539860.064 5 128957860.132 5 100486654.92142  24539861.656 2  24539864.429 2
        38.000          20.000
  24415905.873 6 128306475.416 6  99979075.95041  24415905.074 1  24415904.795 1
        40.000          19.000
 13  1 30  1 37  0.0000000  0 10G25G02G12G29G21G30G31G10G05G23
  21191579.281 7 111362526.387 7  86776013.11946  21191579.081 6  21191583.625 6
        49.000          40.000
  23050599.488 7 121131741.814 7  94388391.91244  23050599.002 4  23050599.309 4
        45.000          30.000
  23901445.851 6 125602965.477 6  97872459.37342  23901444.675 2  23901446.815 2
        42.000          24.000
  20161357.804 8 105948678.941 8  82557428.19647  20161357.815 7  20161360.109 7
        53.000          47.000
  24500012.703 5 128748430.860 5 100323464.93741  24500011.612 1  24500013.246 1
        37.000          14.000
  22915817.980 6 120423437.039 6  93836461.30043  22915816.296 3  22915820.207 3
        44.000          28.000
  21316014.943 8 112016429.182 8  87285530.72746  21316015.162 6  21316016.072 6
        52.000          41.000
  23981690.742 3 126024625.087 3
        29.000
  24524913.211 5 128879308.103 5 100425445.59242  24524912.991 2  24524917.508 2
        38.000          21.000
  24411281.777 6 128282174.364 6  99960140.07041  24411280.074 1  24411279.430 1
        42.000          18.000
 13  1 30  1 37 30.0000000  0  9G25G02G12G29G21G30G31G05G23
  21204567.387 7 111430780.959 7  86829198.49245  21204567.185 5  21204571.805 5
        49.000          39.000
  23063564.259 7 121199875.415 7  94441483.02443  23063563.853 3  23063564.188 3
        45.000          29.000
  23921361.413 6 125707628.292 6  97954014.78842  23921361.384 2  23921364.568 2
        41.000          23.000
  20160111.333 8 105942128.337 8  82552323.83247  20160111.339 7  20160113.528 7
        53.000          47.000
  24480770.334 5 128647309.840 5 100244669.39341  24480769.947 1  24480770.029 1
        37.000          15.000
  22896308.816 7 120320912.398 7  93756571.97643  22896308.098 3  22896311.369 3
        45.000          28.000
  21316908.747 8 112021127.356 8  87289191.64246  21316909.178 6  21316910.210 6
        51.000          41.000
  24510027.878 6 128801082.376 6 100364490.51542  24510028.542 2  24510030.429 2
        40.000          20.000
  24406765.833 6 128258444.309 6  99941649.12341  24406765.214 1  24406765.805 1
        41.000          19.000
 13  1 30  1 38  0.0000000  0  9G25G02G12G29G21G30G31G05G23
  21217629.147 8 111499418.069 8  86882681.94646  21217628.642 6  21217633.169 6
        51.000          40.000
  23076608.522 7 121268420.432 7  94494894.71543  23076607.772 3  23076608.330 3
        45.000          29.000
  23941304.257 6 125812425.851 6  98035675.16442  23941303.561 2  23941306.580 2
        41.000          23.000
  20158957.737 8 105936066.353 8  82547600.20947  20158957.712 7  20158959.958 7
        54.000          47.000
  24461545.959 5 128546284.893 5 100165948.69941  24461544.794 1  24461547.027 1
        37.000          15.000
  22876841.231 7 120218609.918 7  93676855.73943  22876840.470 3  22876843.052 3
        45.000          28.000
  21317915.883 8 112026419.900 8  87293315.70246  21317916.274 6  21317917.329 6
        52.000          42.000
  24495205.313 5 128723185.542 5 100303791.69942  24495204.837 2  24495206.816 2
        38.000          20.000
  24402359.489 6 128235285.865 6  99923603.55641  24402358.950 1  24402357.192 1
        42.000          19.000
 13  1 30  1 38 30.0000000  0  9G25G02G12G29G21G30G31G05G23
  21230762.506 8 111568436.603 8  86936462.61746  21230762.454 5  21230767.051 6
        50.000          40.000
  23089729.659 7 121337374.677 7  94548625.29244  23089729.304 4  23089729.661 4
        46.000          30.000
  23961272.146 6 125917357.328 6  98117439.91742  23961271.534 2  23961273.820 2
        42.000          24.000
  20157896.989 8 105930492.434 8  82543256.89947  20157897.027 7  20157899.322 7
        52.000          47.000
  24442340.288 5 128445357.937 5 100087304.38041  24442338.733 1  24442340.816 1
        38.000          16.000
  22857416.593 7 120116532.214 7  93597314.68043  22857415.584 3  22857418.323 3
        45.000          28.000
  21319036.107 7 112032306.840 7  87297902.92846  21319036.450 6  21319037.338 6
        48.000          41.000
  24480444.080 5 128645620.605 5 100243351.53742  24480443.960 2  24480448.365 2
        39.000          22.000
  24398060.631 6 128212699.923 6  99906004.12141  24398060.690 1  24398060.315 1
        40.000          17.000
 13  1 30  1 39  0.0000000  0 10G25G02G12G29G21G30G13G31G05G23
  21243968.757 8 111637835.405 8  86990539.59046  21243968.715 6  21243973.338 6
        51.000          40.000
  23102928.433 7 121406736.238 7  94602673.28144  23102928.346 4  23102928.444 4
        46.000          30.000
  23981265.248 6 126022421.173 6  98199307.83142  23981264.679 2  23981266.909 2
        42.000          24.000
  20156929.264 8 105925406.116 8  82539293.53347  20156929.138 7  20156931.386 7
        53.000          46.000
  24423151.929 5 128344530.961 5 100008737.95741  24423150.875 1  24423153.249 1
        38.000          16.000
  22838035.034 6 120014681.028 6  93517950.11943  22838033.765 3  22838036.591 3
        44.000          29.000
  25111333.307 4 131960929.762 4
        32.000
  21320269.890 8 112038788.280 8  87302953.39546  21320269.865 6  21320270.816 6
        51.000          41.000
  24465748.453 5 128568390.554 5 100183172.32842  24465748.541 2  24465751.072 2
        39.000          22.000
  24393872.824 6 128190687.349 6  99888851.47041  24393871.399 1  24393870.267 1
        42.000          18.000
 13  1 30  1 39 30.0000000  0 11G25G02G12G29G21G30G13G31G10G05G23
  21257247.015 7 111707613.314 7  87044911.98546  21257247.132 6  21257251.630 6
        49.000          40.000
  23116205.097 7 121476502.824 7  94657036.80743  23116204.533 3  23116205.085 3
        45.000          29.000
  24001283.384 6 126127616.304 6  98281278.00942  24001283.186 2  24001285.317 2
        41.000          23.000
  20156054.104 8 105920808.223 8  82535710.76147  20156054.257 7  20156056.330 7
        53.000          46.000
  24403984.867 5 128243805.819 5  99930250.86441  24403983.791 1  24403987.562 1
        36.000          16.000
  22818696.307 6 119913059.009 6  93438764.13543  22818695.687 3  22818698.379 3
        44.000          28.000
  25098148.486 4 131891654.012 4
        34.000
  21321616.070 8 112045864.443 8  87308467.28846  21321616.444 6  21321617.636 6
        50.000          41.000
  23985509.954 4 126044713.217 4
        33.000
  24451115.793 6 128491498.407 6 100123256.38942  24451116.908 2  24451117.483 2
        40.000          21.000
  24389792.769 6 128169248.642 6  99872145.98141  24389791.824 1  24389791.697 1
        40.000          19.000
 13  1 30  1 40  0.0000000  0 11G25G02G12G29G21G30G13G31G10G05G23
  21270597.563 8 111777769.124 8  87099578.84446  21270597.267 6  21270601.926 6
        51.000          40.000
  23129557.593 7 121546672.387 7  94711714.39743  23129557.219 3  23129557.525 3
        45.000          28.000
  24021326.699 6 126232941.055 6  98363349.22242  24021326.255 2  24021328.214 2
        42.000          24.000
  20155271.977 8 105916697.701 8  82532507.75547  20155272.092 7  20155274.126 7
        53.000          47.000
  24384837.307 5 128143184.657 5  99851844.80541  24384835.650 1  24384840.619 1
        36.000          16.000
  22799402.728 6 119811668.008 6  93359758.15343  22799401.513 3  22799404.751 3
        44.000          28.000
  25085056.057 4 131822841.216 4
        34.000
  21323075.680 8 112053534.758 8  87314444.15146  21323076.013 6  21323077.038 6
        51.000          41.000
  23986635.078 4 126050607.283 4
        31.000
  24436547.856 5 128414946.777 5 100063605.77942  24436548.512 2  24436551.022 2
        39.000          22.000
  24385821.420 6 128148384.636 6  99855888.29241  24385823.168 1  24385821.844 1
        42.000          18.000
 13  1 30  1 40 30.0000000  0 11G25G02G12G29G21G30G13G31G10G05G23
  21284019.199 8 111848301.718 8  87154539.29046  21284019.126 6  21284023.804 6
        50.000          40.000
  23142986.983 7 121617242.938 7  94766704.44743  23142986.190 3  23142986.710 3
        45.000          28.000
  24041393.868 6 126338394.284 6  98445520.52642  24041393.249 2  24041394.259 2
        41.000          23.000
  20154582.487 8 105913073.757 8  82529683.90247  20154582.391 7  20154584.561 7
        54.000          47.000
  24365708.997 5 128042669.817 5  99773521.60041  24365709.955 1  24365712.863 1
        37.000          17.000
  22780152.728 7 119710510.397 7  93280934.03643  22780152.148 3  22780154.549 3
        45.000          28.000
  25072047.226 4 131754493.970 4
        34.000
  21324648.508 8 112061799.352 8  87320884.09446  21324648.758 6  21324649.697 6
        52.000          41.000
  23987873.092 4 126057128.281 4
        32.000
  24422046.575 6 128338739.025 6 100004223.15342  24422046.476 2  24422049.647 2
        41.000          22.000
  24381961.472 6 128128096.035 6  99840079.00041  24381960.552 1  24381959.941 1
        41.000          19.000
 13  1 30  1 41  0.0000000  0 11G25G02G12G29G21G30G13G31G10G05G23
  21297512.517 7 111919209.861 7  87209792.37946  21297512.508 6  21297517.074 6
        49.000          40.000
  23156491.272 7 121688212.318 7  94822005.26943  23156491.533 3  23156492.599 3
        46.000          29.000
  24061484.833 6 126443974.803 6  98527791.04542  24061484.379 2  24061486.772 2
        41.000          23.000
  20153985.646 8 105909936.841 8  82527239.55647  20153985.430 7  20153987.586 7
        54.000          47.000
  24346603.996 5 127942263.485 5  99695282.95341  24346602.989 1  24346604.957 1
        38.000          16.000
  22760948.167 7 119609588.474 7  93202293.56543  22760947.410 3  22760950.121 3
        46.000          28.000
  25059130.796 4 131686614.432 4
        33.000
  21326334.139 8 112070658.081 8  87327786.99046  21326334.398 6  21326335.396 6
        52.000          41.000
  23989234.167 4 126064275.625 4
        31.000
  24407611.058 6 128262877.745 6  99945110.51342  24407610.817 2  24407612.385 2
        41.000          21.000
  24378209.714 6 128108383.210 6  99824718.36841  24378208.902 1  24378209.722 1
        42.000          19.000
 13  1 30  1 41 30.0000000  0 10G25G02G12G29G21G30G13G31G05G23
  21311077.348 8 111990492.387 8  87265337.19746  21311077.063 5  21311081.879 6
        50.000          40.000
  23170072.216 7 121759578.401 7  94877615.20943  23170072.272 3  23170072.840 3
        45.000          29.000
  24081598.148 6 126549681.397 6  98610159.79242  24081599.968 2  24081601.254 2
        41.000          23.000
  20153480.893 8 105907286.144 8  82525174.08047  20153481.058 7  20153483.182 7
        54.000          46.000
  24327517.532 5 127841967.507 5  99617130.27541  24327515.713 1  24327519.981 1
        37.000          16.000
  22741787.116 6 119508904.394 6  93123838.43743  22741786.817 3  22741790.838 3
        44.000          29.000
  25046302.887 4 131619205.051 4
        34.000
  21328133.473 8 112080111.105 8  87335152.97746  21328133.384 6  21328134.261 6
        52.000          41.000
  24393241.189 6 128187365.905 6  99886270.16542  24393241.807 2  24393243.588 2
        40.000          22.000
  24374568.815 6 128089246.996 6  99809807.07342  24374568.574 2  24374567.632 2
        43.000          20.000
 13  1 30  1 42  0.0000000  0 11G25G02G12G29G21G30G13G31G10G05G23
  21324713.020 8 112062148.087 8  87321172.78845  21324712.717 5  21324717.394 5
        50.000          39.000
  23183728.110 7 121831339.101 7  94933532.63943  23183727.562 3  23183727.946 3
        45.000          28.000
  24101738.358 6 126655512.592 6  98692625.61042  24101738.888 2  24101741.228 2
        41.000          23.000
  20153069.360 8 105905121.251 8  82523487.15047  20153069.082 7  20153071.241 7
        54.000          47.000
  24308453.013 5 127741783.592 5  99539064.96041  24308451.897 1  24308454.852 1
        37.000          16.000
  22722674.635 6 119408460.414 6  93045570.40043  22722673.167 3  22722676.613 3
        44.000          29.000
  25033564.060 4 131552268.640 4
        32.000
  21330045.049 8 112090157.797 8  87342981.56446  21330045.186 6  21330046.206 6
        51.000          41.000
  23992308.389 4 126080448.441 4
        30.000
  24378939.228 6 128112206.452 6  99827704.36842  24378938.309 2  24378942.464 2
        40.000          22.000
  24371037.579 6 128070687.733 6  99795345.25842  24371036.516 2  24371035.968 2
        43.000          20.000
 13  1 30  1 42 30.0000000  0 11G25G02G12G29G21G30G13G31G10G05G23
  21338419.102 7 112134175.768 7  87377298.24445  21338419.020 5  21338423.832 5
        49.000          39.000
  23197457.782 7 121903492.287 7  94989755.88843  23197457.575 3  23197458.672 3
        45.000          28.000
  24121902.186 6 126761466.972 6  98775187.44442  24121900.993 2  24121902.863 2
        40.000          22.000
  20152749.549 8 105903441.808 8  82522178.49647  20152749.573 7  20152751.700 7
        53.000          46.000
  24289411.426 5 127641713.837 5  99461088.56641  24289411.777 1  24289412.544 1
        39.000          18.000
  22703607.595 7 119308258.718 7  92967491.17143  22703605.969 3  22703609.189 3
        45.000          29.000
  25020920.680 5 131485807.813 5
        35.000
  21332069.962 8 112100798.239 8  87351272.81746  21332069.980 6  21332070.958 6
        52.000          40.000
  23994030.844 4 126089475.347 4
        31.000
  24364703.999 6 128037402.081 6  99769415.28442  24364704.156 2  24364706.201 2
        40.000          22.000
  24367614.131 6 128052706.239 6  99781333.72842  24367615.043 2  24367614.374 2
        41.000          20.000
 13  1 30  1 43  0.0000000  0 11G25G02G12G29G21G30G13G31G10G05G23
  21352196.065 8 112206574.180 8  87433712.58145  21352196.148 5  21352201.043 5
        50.000          39.000
  23211262.563 7 121976035.882 7  95046283.36243  23211262.693 3  23211263.070 3
        46.000          27.000
  24142086.524 5 126867543.237 5  98857844.23942  24142087.002 2  24142089.920 2
        39.000          22.000
  20152522.320 8 105902247.713 8  82521248.03247  20152522.306 7  20152524.449 7
        53.000          47.000
  24270389.771 5 127541760.591 5  99383202.94741  24270390.008 1  24270390.853 1
        38.000          17.000
  22684585.984 7 119208301.579 7  92889602.48043  22684585.103 3  22684587.966 3
        46.000          29.000
  25008362.521 5 131419824.648 5
        36.000
  21334207.658 8 112112032.094 8  87360026.46546  21334207.701 6  21334208.622 6
        50.000          41.000
  23995866.880 5 126099137.128 5
        38.000
  24350537.790 5 127962955.936 5  99711405.33742  24350537.112 2  24350539.762 2
        39.000          23.000
  24364303.829 6 128035303.237 6  99767772.96942  24364303.218 2  24364303.102 2
        41.000          20.000
 13  1 30  1 43 30.0000000  0 11G25G02G12G29G21G30G13G31G10G05G23
  21366043.613 8 112279342.148 8  87490414.88645  21366043.510 5  21366048.071 5
        50.000          39.000
  23225141.504 7 122048967.739 7  95103113.37143  23225141.000 3  23225141.776 3
        46.000          28.000
  24162295.313 6 126973740.157 6  98940595.04242  24162295.305 2  24162297.283 2
        40.000          22.000
  20152387.360 8 105901538.001 8  82520695.01547  20152387.231 7  20152389.301 7
        53.000          46.000
  24251391.752 5 127441925.723 5  99305409.59741  24251391.332 1  24251392.535 1
        38.000          17.000
  22665611.696 7 119108591.335 7  92811906.19043  22665610.642 3  22665613.596 3
        45.000          29.000
  24995896.943 5 131354321.490 5
        35.000
  21336458.267 8 112123859.269 8  87369242.44146  21336458.235 6  21336459.389 6
        51.000          41.000
  23997820.663 4 126109416.501 4  98267080.64541  23997821.348 1  23997830.667 1
        30.000           5.000
  24336439.882 6 127888870.653 6  99653676.59042  24336439.461 2  24336440.691 2
        40.000          23.000
  24361102.511 6 128018478.966 6  99754663.14542  24361101.930 2  24361101.830 2
        41.000          21.000
 13  1 30  1 44  0.0000000  0 10G25G02G12G29G21G30G13G31G05G23
  21379961.255 8 112352478.411 8  87547404.17045  21379960.723 5  21379965.524 5
        50.000          39.000
  23239093.344 7 122122285.873 7  95160244.40543  23239093.141 3  23239093.576 3
        45.000          27.000
  24182526.849 6 127080056.162 6  99023438.63842  24182526.206 2  24182528.900 2
        40.000          22.000
  20152344.328 8 105901312.664 8  82520519.42847  20152344.465 7  20152346.395 7
        54.000          47.000
  24232417.469 5 127342211.185 5  99227710.01641  24232416.133 1  24232418.144 1
        38.000          17.000
  22646684.329 7 119009130.146 7  92734403.96443  22646683.653 3  22646686.245 3
        45.000          29.000
  24983525.165 5 131289300.743 5
        36.000
  21338821.863 8 112136279.668 8  87378920.66746  21338822.028 6  21338822.808 6
        52.000          41.000
  24322411.067 6 127815149.174 6  99596231.32742  24322410.977 2  24322412.852 2
        41.000          24.000
  24358011.419 6 128002233.941 6  99742004.67842  24358010.022 2  24358010.132 2
        43.000          20.000
 13  1 30  1 44 30.0000000  0 11G25G02G12G29G21G30G13G31G10G05G23
  21393948.470 8 112425981.773 8  87604679.51045  21393948.138 5  21393952.810 5
        51.000          39.000
  23253118.730 7 122195987.797 7  95217674.48443  23253118.381 3  23253118.373 3
        45.000          28.000
  24202781.169 6 127186490.467 6  99106374.43242  24202780.853 2  24202782.400 2
        41.000          22.000
  20152393.438 8 105901571.474 8  82520721.10047  20152393.643 7  20152395.671 7
        52.000          47.000
  24213464.950 5 127242619.203 5  99150105.91041  24213464.880 1  24213467.609 1
        38.000          18.000
  22627806.112 7 118909920.516 7  92657097.76844  22627804.498 3  22627807.936 4
        45.000          30.000
  24971243.707 5 131224764.954 5 102253083.40941  24971243.096 1  24971245.932 1
        37.000          12.000
  21341297.686 8 112149292.969 8  87389060.89946  21341298.224 6  21341299.142 6
        50.000          41.000
  24002093.014 4 126131862.151 4
        34.000
  24308452.054 6 127741794.626 6  99539071.97542  24308452.993 2  24308454.851 2
        40.000          23.000
  24355029.788 6 127986568.634 6  99729797.96442  24355029.911 2  24355028.731 2
        41.000          21.000
 13  1 30  1 45  0.0000000  0 11G25G02G12G29G21G30G13G31G10G05G23
  21408005.064 7 112499850.968 7  87662239.90445  21408004.839 5  21408009.834 5
        49.000          39.000
  23267216.068 7 122270071.533 7  95275402.06943  23267215.631 3  23267216.042 3
        45.000          28.000
  24223056.555 6 127293041.476 6  99189401.16642  24223056.029 2  24223058.333 2
        41.000          22.000
  20152534.759 8 105902313.625 8  82521299.39647  20152534.830 7  20152536.939 7
        54.000          47.000
  24194537.388 5 127143151.589 5  99072598.73241  24194537.164 1  24194538.725 1
        38.000          18.000
  22608975.491 7 118810964.253 7  92579988.98644  22608974.216 3  22608976.701 4
        45.000          30.000
  24959055.552 5 131160716.201 5 102203175.36241  24959055.934 1  24959056.038 1
        36.000          12.000
  21343887.026 8 112162898.815 8  87399662.85346  21343887.490 6  21343888.441 6
        52.000          41.000
  24004402.182 4 126144018.099 4
        31.000
  24294563.675 6 127668809.781 6  99482200.68742  24294563.383 2  24294565.149 2
        40.000          22.000
  24352161.038 6 127971483.665 6  99718043.45842  24352160.181 2  24352156.952 2
        43.000          20.000
 13  1 30  1 45 30.0000000  0 11G25G02G12G29G21G30G13G31G10G05G23
  21422131.991 8 112574084.797 8  87720084.44545  21422131.176 5  21422135.673 5
        50.000          39.000
  23281385.074 7 122344534.821 7  95333425.40243  23281385.391 3  23281386.182 3
        45.000          28.000
  24243353.763 6 127399707.788 6  99272517.74242  24243354.031 2  24243356.912 2
        40.000          22.000
  20152768.010 8 105903538.427 8  82522253.79247  20152767.905 7  20152770.048 7
        54.000          47.000
  24175632.774 5 127043810.583 5  98995190.20541  24175633.523 1  24175635.073 1
        38.000          17.000
  22590192.995 7 118712264.089 7  92503079.77044  22590192.686 4  22590195.053 4
        45.000          30.000
  24946959.945 4 131097157.187 4 102153648.89541  24946961.293 1  24946961.309 1
        34.000          10.000
  21346589.207 8 112177096.919 8  87410726.30746  21346589.349 6  21346590.121 6
        52.000          41.000
  24006839.192 4 126156794.677 4
        34.000
  24280746.010 6 127596197.080 6  99425619.39242  24280745.916 2  24280748.030 2
        41.000          22.000
  24349398.830 6 127956979.495 6  99706741.50142  24349398.783 2  24349397.532 2
        42.000          21.000
 13  1 30  1 46  0.0000000  0 10G25G02G12G29G21G30G13G31G05G23
  21436326.620 7 112648681.972 7  87778212.09945  21436326.381 5  21436331.275 5
        49.000          39.000
  23295627.504 6 122419375.581 6  95391742.88743  23295626.771 3  23295628.216 3
        44.000          27.000
  24263673.408 5 127506487.788 5  99355722.90542  24263674.227 2  24263676.418 2
        39.000          23.000
  20153093.037 8 105905246.122 8  82523584.45547  20153092.893 7  20153094.957 7
        52.000          47.000
  24156752.322 5 126944598.219 5  98917881.92041  24156753.263 1  24156754.893 1
        38.000          17.000
  22571460.426 7 118613822.110 7  92426371.73744  22571459.176 4  22571462.142 4
        45.000          30.000
  24934958.813 5 131034090.249 5 102104505.84841  24934957.654 1  24934958.272 1
        35.000           9.000
  21349403.730 8 112191886.873 8  87422250.93646  21349403.756 6  21349404.620 6
        50.000          41.000
  24266999.413 6 127523959.750 6  99369330.59642  24266998.471 2  24267001.808 2
        41.000          22.000
  24346749.822 6 127943056.378 6  99695892.32242  24346748.915 2  24346749.006 2
        42.000          21.000
 13  1 30  1 46 30.0000000  0 10G25G02G12G29G21G30G13G31G05G23
  21450591.212 7 112723641.240 7  87836621.91345  21450590.846 5  21450595.578 5
        49.000          39.000
  23309940.422 6 122494591.805 6  95450352.90743  23309940.056 3  23309941.394 3
        44.000          27.000
  24284014.654 6 127613380.931 6  99439016.23142  24284014.878 2  24284017.283 2
        41.000          22.000
  20153509.399 8 105907436.084 8  82525290.92047  20153509.670 7  20153511.643 7
        54.000          47.000
  24137899.771 5 126845516.605 5  98840675.49241  24137899.899 1  24137900.660 1
        39.000          18.000
  22552776.873 7 118515640.339 7  92349866.46344  22552775.870 4  22552779.195 4
        47.000          31.000
  24923051.770 4 130971517.104 4 102055747.57341  24923055.036 1  24923056.229 1
        34.000          10.000
  21352330.282 8 112207268.142 8  87434236.33246  21352330.598 6  21352331.544 6
        52.000          41.000
  24253324.336 6 127452100.670 6  99313336.53942  24253325.229 2  24253327.085 2
        41.000          22.000
  24344209.750 6 127929714.734 6  99685496.24941  24344209.775 1  24344210.510 1
        40.000          19.000
 13  1 30  1 47  0.0000000  0 10G25G02G12G29G21G30G13G31G05G23
  21464924.100 8 112798961.343 8  87895312.89045  21464923.693 5  21464928.456 5
        51.000          39.000
  23324324.817 7 122570181.139 7  95509253.68143  23324324.466 3  23324325.217 3
        45.000          28.000
  24304377.540 6 127720385.418 6  99522396.31242  24304377.226 2  24304378.989 2
        40.000          22.000
  20154018.353 8 105910107.380 8  82527372.44747  20154018.031 7  20154020.053 7
        54.000          47.000
  24119069.507 5 126746567.616 5  98763572.42341  24119068.708 1  24119071.309 1
        38.000          18.000
  22534142.981 7 118417721.578 7  92273566.13344  22534142.101 4  22534144.859 4
        46.000          30.000
  24911237.740 4 130909440.668 4 102007376.41241  24911237.246 1  24911239.013 1
        33.000           7.000
  21355369.851 8 112223240.745 8  87446682.51046  21355370.120 6  21355371.048 6
        52.000          41.000
  24239723.403 5 127380622.520 5  99257639.31742  24239722.621 2  24239725.543 2
        38.000          22.000
  24341782.184 6 127916954.981 6  99675553.57042  24341781.361 2  24341781.836 2
        42.000          20.000
 13  1 30  1 47 30.0000000  0 10G25G02G12G29G21G30G13G31G05G23
  21479325.197 7 112874641.045 7  87954284.07445  21479324.905 5  21479329.836 5
        49.000          38.000
  23338779.084 7 122646141.378 7  95568443.47243  23338779.200 3  23338780.354 3
        45.000          27.000
  24324760.700 5 127827500.067 5  99605862.24042  24324760.563 2  24324762.332 2
        39.000          22.000
  20154617.600 8 105913259.833 8  82529828.90547  20154617.872 7  20154619.959 7
        54.000          47.000
  24100266.155 5 126647753.263 5  98686574.27741  24100265.461 1  24100268.073 1
        38.000          18.000
  22515559.449 7 118320067.753 7  92197472.24144  22515559.565 4  22515562.463 4
        45.000          30.000
  24899521.688 5 130847863.318 5 101959394.01641  24899522.453 1  24899523.498 1
        35.000           9.000
  21358521.798 8 112239804.085 8  87459588.99646  21358521.950 6  21358522.991 6
        51.000          41.000
  24226193.061 5 127309528.083 5  99202241.09642  24226194.527 2  24226196.704 2
        39.000          22.000
  24339464.652 6 127904777.443 6  99666064.57042  24339463.782 2  24339464.830 2
        40.000          20.000
 13  1 30  1 48  0.0000000  0 10G25G02G12G29G21G30G13G31G05G23
  21493795.058 8 112950678.983 8  88013534.40545  21493794.657 5  21493799.380 5
        50.000          38.000
  23353304.612 6 122722470.287 6  95627920.55243  23353304.683 3  23353304.409 3
        44.000          27.000
  24345164.322 6 127934723.612 6  99689413.01442  24345164.923 2  24345167.373 2
        40.000          21.000
  20155308.915 8 105916892.850 8  82532659.82647  20155309.145 7  20155311.322 7
        54.000          47.000
  24081487.914 5 126549075.337 5  98609682.40141  24081487.275 1  24081490.891 1
        38.000          19.000
  22497028.874 7 118222681.172 7  92121586.58744  22497027.807 4  22497030.399 4
        45.000          31.000
  24887898.621 5 130786786.875 5 101911802.01741  24887899.456 1  24887899.494 1
        37.000          12.000
  21361786.028 8 112256957.692 8  87472955.44146  21361786.100 6  21361787.238 6
        51.000          41.000
  24212739.524 6 127238819.795 6  99147143.76142  24212739.024 2  24212740.620 2
        41.000          22.000
  24337258.876 6 127893182.319 6  99657029.40142  24337257.740 2  24337258.618 2
        43.000          20.000
 13  1 30  1 48 30.0000000  0 10G25G02G12G29G21G30G13G31G05G23
  21508332.482 7 113027073.981 7  88073062.95845  21508332.027 5  21508336.899 5
        49.000          38.000
  23367899.217 6 122799165.806 6  95687683.30043  23367898.714 3  23367899.411 3
        43.000          26.000
  24365588.362 6 128042054.720 6  99773047.60542  24365589.119 2  24365591.604 2
        40.000          21.000
  20156091.904 8 105921005.913 8  82535864.81347  20156091.883 7  20156094.019 7
        54.000          47.000
  24062737.087 5 126450536.265 5  98532898.75341  24062736.467 1  24062737.429 1
        39.000          19.000
  22478548.002 7 118125564.326 7  92045911.12844  22478547.030 4  22478550.280 4
        47.000          31.000
  24876371.918 5 130726213.743 5 101864602.15141  24876371.821 1  24876375.376 1
        36.000          13.000
  21365162.534 8 112274701.491 8  87486781.76846  21365162.750 6  21365163.709 6
        51.000          41.000
  24199358.749 6 127168501.041 6  99092349.95942  24199357.771 2  24199360.652 2
        41.000          22.000
  24335163.568 6 127882170.103 6  99648448.48742  24335162.684 2  24335162.465 2
        42.000          21.000
 13  1 30  1 49  0.0000000  0 10G25G02G12G29G21G30G13G31G05G23
  21522936.990 8 113103824.705 8  88132868.70345  21522936.949 5  21522942.189 5
        50.000          39.000
  23382563.030 7 122876225.663 7  95747729.96543  23382562.949 3  23382563.454 3
        45.000          27.000
  24386033.298 6 128149492.007 6  99856764.95842  24386033.007 2  24386035.883 2
        40.000          20.000
  20156965.942 8 105925598.490 8  82539443.44447  20156965.801 7  20156967.958 7
        54.000          46.000
  24044013.346 5 126352137.886 5  98456224.69141  24044011.982 1  24044013.173 1
        39.000          19.000
  22460117.886 7 118028719.297 7  91970447.47544  22460117.542 4  22460121.181 4
        45.000          31.000
  24864941.938 5 130666146.127 5 101817796.24741  24864943.038 1  24864945.269 1
        36.000          15.000
  21368651.209 8 112293034.496 8  87501067.22146  21368651.236 6  21368652.164 6
        52.000          40.000
  24186050.832 6 127098574.507 6  99037861.78442  24186051.803 2  24186052.526 2
        41.000          22.000
  24333178.443 6 127871741.055 6  99640321.95042  24333177.528 2  24333178.280 2
        41.000          20.000
 13  1 30  1 49 30.0000000  0 10G25G02G12G29G21G30G13G31G05G23
  21537609.829 7 113180929.860 7  88192950.63545  21537609.662 5  21537614.723 5
        49.000          38.000
  23397295.849 6 122953647.686 6  95808058.80543  23397295.780 3  23397296.508 3
        44.000          26.000
  24406496.527 5 128257034.059 5  99940563.94242  24406496.740 2  24406500.186 2
        37.000          20.000
  20157930.734 9 105930670.050 9  82543395.30747  20157930.869 7  20157933.119 7
        55.000          46.000
  24025313.664 5 126253882.132 5  98379661.79841  24025312.959 1  24025316.395 1
        38.000          19.000
  22441741.369 6 117932148.593 6  91895197.58444  22441740.646 4  22441744.277 4
        44.000          31.000
  24853607.163 5 130606586.472 5 101771386.18941  24853609.050 1  24853610.844 1
        36.000          14.000
  21372252.354 8 112311956.476 8  87515811.61146  21372252.130 6  21372252.949 6
        52.000          40.000
  24172820.527 6 127029042.717 6  98983681.19042  24172819.286 2  24172820.534 2
        41.000          22.000
  24331304.991 6 127861895.269 6  99632649.92442  24331304.233 2  24331304.889 2
        42.000          20.000
 13  1 30  1 50  0.0000000  0 11G25G02G12G29G21G30G13G31G10G05G23
  21552349.762 7 113258388.158 7  88253307.72845  21552349.424 5  21552354.589 5
        48.000          38.000
  23412097.694 6 123031429.725 6  95868668.18343  23412097.564 3  23412097.456 3
        43.000          25.000
  24426981.855 5 128364679.630 5 100024443.53542  24426981.763 2  24426986.303 2
        39.000          20.000
  20158987.183 8 105936219.866 8  82547719.83947  20158986.995 7  20158989.288 7
        53.000          47.000
  24006644.876 5 126155771.072 5  98303211.67241  24006643.749 1  24006645.367 1
        39.000          18.000
  22423416.901 7 117835854.261 7  91820163.04044  22423416.603 4  22423420.160 4
        46.000          31.000
  24842371.041 5 130547536.759 5 101725373.43941  24842371.256 1  24842372.099 1
        38.000          14.000
  21375965.081 8 112331467.011 8  87531014.61546  21375964.873 6  21375965.819 6
        52.000          40.000
  24034067.716 4 126299877.513 4
        34.000
  24159662.596 6 126959908.480 6  98929810.37642  24159663.130 2  24159665.613 2
        40.000          21.000
  24329542.581 6 127852632.982 6  99625432.55142  24329541.566 2  24329542.042 2
        41.000          20.000
 13  1 30  1 50 30.0000000  0 11G25G02G12G29G21G30G13G31G10G05G23
  21567156.099 7 113336198.315 7  88313939.00745  21567156.131 5  21567161.291 5
        48.000          38.000
  23426967.050 7 123109569.675 7  95929556.45343  23426966.795 3  23426967.352 3
        45.000          27.000
  24447487.057 6 128472427.355 6 100108402.76742  24447486.630 2  24447489.125 2
        40.000          20.000
  20160134.078 8 105942247.793 8  82552416.92447  20160134.065 7  20160136.296 7
        52.000          47.000
  23988002.320 5 126057806.866 5  98226875.94841  23988001.904 1  23988004.611 1
        39.000          19.000
  22405146.476 7 117739838.918 7  91745345.87944  22405145.823 4  22405148.532 4
        46.000          31.000
  24831232.451 5 130488999.479 5 101679760.03441  24831232.467 1  24831234.526 1
        37.000          12.000
  21379789.561 8 112351565.565 8  87546675.82346  21379789.480 6  21379790.523 6
        50.000          41.000
  24037683.217 5 126318886.504 5  98430311.01841  24037684.307 1  24037687.006 1
        37.000          12.000
  24146583.695 6 126891174.580 6  98876251.52642  24146583.304 2  24146585.129 2
        41.000          21.000
  24327890.417 6 127843954.255 6  99618669.91842  24327889.691 2  24327889.355 2
        41.000          20.000
 13  1 30  1 51  0.0000000  0 11G25G02G12G29G21G30G13G31G10G05G23
  21582030.082 7 113414358.960 7  88374843.39045  21582029.811 5  21582034.980 5
        49.000          38.000
  23441903.923 6 123188065.057 6  95990721.67843  23441904.124 3  23441904.679 3
        43.000          26.000
  24468008.993 5 128580275.959 5 100192440.61542  24468009.392 2  24468011.843 2
        39.000          20.000
  20161372.167 8 105948753.067 8  82557485.97147  20161372.017 7  20161374.088 7
        53.000          47.000
  23969389.122 5 125959991.450 5  98150656.14142  23969388.730 2  23969390.348 2
        39.000          20.000
  22386929.190 7 117644104.764 7  91670747.84944  22386928.078 4  22386930.917 4
        46.000          31.000
  24820190.504 5 130430976.626 5 101634547.43241  24820191.130 1  24820194.115 1
        38.000          13.000
  21383725.993 8 112372251.607 8  87562794.81146  21383726.029 6  21383726.918 6
        51.000          40.000
  24041418.259 5 126338515.586 5  98445606.43041  24041418.978 1  24041422.593 1
        36.000          13.000
  24133581.473 5 126822843.751 5  98823006.74842  24133581.492 2  24133582.865 2
        39.000          21.000
  24326349.796 6 127835859.433 6  99612362.26242  24326349.939 2  24326348.723 2
        42.000          20.000
 13  1 30  1 51 30.0000000  0 11G25G02G12G29G21G30G13G31G10G05G23
  21596970.266 7 113492868.869 7  88436019.92645  21596969.845 5  21596974.671 5
        49.000          37.000
  23456908.525 6 123266913.779 6  96052162.20843  23456908.316 3  23456908.942 3
        44.000          26.000
  24488551.366 5 128688224.339 5 100276556.15842  24488550.609 2  24488553.792 2
        39.000          20.000
  20162700.936 8 105955735.189 8  82562926.58547  20162700.773 7  20162702.767 7
        53.000          47.000
  23950803.767 5 125862326.793 5  98074553.83742  23950803.477 2  23950804.978 2
        39.000          20.000
  22368764.947 7 117548653.938 7  91596370.58544  22368764.141 4  22368767.554 4
        46.000          32.000
  24809247.998 5 130373470.055 5 101589737.09641  24809247.319 1  24809249.332 1
        37.000          12.000
  21387773.700 8 112393524.161 8  87579370.81646  21387774.106 6  21387775.073 6
        51.000          40.000
  24045272.609 5 126358764.382 5  98461384.66141  24045270.153 1  24045273.170 1
        38.000          11.000
  24120655.419 6 126754918.844 6  98770078.27542  24120654.500 2  24120657.468 2
        40.000          21.000
  24324919.884 5 127828348.765 5  99606509.81542  24324920.143 2  24324919.683 2
        39.000          20.000
 13  1 30  1 52  0.0000000  0 11G25G02G12G29G21G30G13G31G10G05G23
  21611976.453 7 113571726.617 7  88497467.51345  21611975.957 5  21611980.886 5
        49.000          37.000
  23471979.750 6 123346113.627 6  96113876.36443  23471979.140 3  23471979.923 3
        43.000          26.000
  24509112.165 6 128796270.895 6 100360748.26442  24509112.361 2  24509113.666 2
        41.000          20.000
  20164119.903 8 105963193.675 8  82568738.39247  20164119.904 7  20164122.012 7
        52.000          47.000
  23932247.674 5 125764814.806 5  97998570.51042  23932246.800 2  23932248.902 2
        38.000          20.000
  22350655.325 7 117453489.049 7  91522216.12344  22350655.180 4  22350657.817 4
        46.000          32.000
  24798403.464 5 130316482.230 5 101545331.03741  24798402.288 1  24798405.591 1
        38.000          13.000
  21391933.462 8 112415382.899 8  87596403.59146  21391933.539 6  21391934.427 6
        50.000          40.000
  24049242.738 5 126379631.874 5  98477645.00941  24049242.004 1  24049244.866 1
        35.000          11.000
  24107807.864 6 126687402.477 6  98717468.17042  24107808.156 2  24107808.915 2
        40.000          21.000
  24323602.390 6 127821422.187 6  99601112.47942  24323602.601 1  24323601.114 2
        41.000          20.000
 13  1 30  1 52 30.0000000  0 11G25G02G12G29G21G30G13G31G10G05G23
  21627048.282 7 113650930.973 7  88559185.17545  21627048.104 5  21627052.939 5
        49.000          38.000
  23487117.988 7 123425662.338 7  96175862.37743  23487117.528 3  23487118.273 3
        45.000          28.000
  24529690.625 6 128904414.067 6 100445015.66742  24529689.384 2  24529693.034 2
        40.000          20.000
  20165629.565 8 105971127.712 8  82574920.76247  20165629.699 7  20165631.797 7
        54.000          47.000
  23913722.189 6 125667457.605 6  97922707.76642  23913721.253 2  23913723.427 2
        40.000          21.000
  22332601.612 7 117358612.323 7  91448286.20344  22332600.773 4  22332603.535 4
        46.000          32.000
  24787658.345 5 130260015.369 5 101501330.89641  24787658.793 1  24787660.872 1
        37.000          13.000
  21396204.611 8 112437827.204 8  87613892.65546  21396204.624 6  21396205.531 6
        52.000          40.000
  24053332.482 5 126401117.518 5  98494387.12541  24053331.641 1  24053333.072 1
        38.000          12.000
  24095039.610 6 126620297.521 6  98665178.59342  24095039.241 2  24095040.285 2
        41.000          20.000
  24322396.026 6 127815079.760 6  99596170.33442  24322395.987 2  24322395.441 2
        41.000          20.000
 13  1 30  1 53  0.0000000  0 11G25G02G12G29G21G30G13G31G10G05G23
  21642186.435 7 113730480.508 7  88621171.81545  21642185.864 5  21642190.929 5
        49.000          38.000
  23502321.530 6 123505557.778 6  96238118.57243  23502320.929 3  23502321.574 3
        44.000          27.000
  24550287.361 5 129012652.955 5 100529357.62342  24550287.052 2  24550289.321 2
        39.000          20.000
  20167229.705 8 105979536.619 8  82581473.15847  20167229.934 7  20167232.045 7
        53.000          46.000
  23895225.724 6 125570257.249 6  97846967.25242  23895223.735 2  23895227.085 2
        41.000          21.000
  22314602.048 7 117264025.995 7  91374582.57444  22314601.349 4  22314604.584 4
        46.000          32.000
  24777013.531 5 130204071.253 5 101457738.06741  24777010.085 1  24777011.735 1
        37.000          11.000
  21400586.841 8 112460856.448 8  87631837.50846  21400586.865 6  21400587.994 6
        51.000          40.000
  24057537.170 5 126423220.549 5  98511610.27241  24057537.881 1  24057539.844 1
        36.000          14.000
  24082345.744 5 126553606.343 5  98613211.50242  24082345.532 2  24082349.269 2
        39.000          21.000
  24321300.935 6 127809321.838 6  99591683.64642  24321300.097 2  24321299.965 2
        42.000          20.000
 13  1 30  1 53 30.0000000  0 11G25G02G12G29G21G30G13G31G10G05G23
  21657389.401 7 113810374.021 7  88683426.48845  21657389.215 5  21657394.301 5
        49.000          37.000
  23517590.937 7 123585797.546 7  96300643.06943  23517590.350 3  23517590.435 3
        45.000          28.000
  24570902.709 6 129120986.297 6 100613773.13342  24570903.245 2  24570905.684 2
        40.000          20.000
  20168920.175 8 105988419.985 8  82588395.25947  20168920.346 7  20168922.634 7
        53.000          46.000
  23876759.037 6 125473215.542 6  97771350.34942  23876758.186 2  23876760.193 2
        40.000          21.000
  22296659.043 7 117169732.479 7  91301107.11844  22296658.041 4  22296661.187 4
        47.000          32.000
  24766467.500 5 130148652.282 5 101414554.43041  24766466.968 1  24766466.301 1
        38.000          10.000
  21405080.404 8 112484470.090 8  87650237.74646  21405080.290 6  21405081.350 6
        50.000          40.000
  24061861.005 5 126445940.524 5  98529314.13341  24061860.114 1  24061863.780 1
        35.000          14.000
  24069735.025 6 126487331.878 6  98561569.09742  24069734.870 2  24069737.689 2
        40.000          22.000
  24320316.101 6 127804148.212 6  99587652.26242  24320314.755 2  24320315.752 2
        42.000          21.000
 13  1 30  1 54  0.0000000  0 11G25G02G12G29G21G30G13G31G10G05G23
  21672657.881 7 113890610.010 7  88745948.02545  21672657.521 5  21672662.600 5
        47.000          38.000
  23532924.532 6 123666379.468 6  96363434.17643  23532923.460 3  23532925.441 3
        43.000          27.000
  24591536.211 6 129229412.606 6 100698261.16141  24591535.445 1  24591538.525 1
        40.000          19.000
  20170701.334 8 105997776.957 8  82595686.40547  20170701.026 7  20170703.291 7
        53.000          47.000
  23858322.324 6 125376334.554 6  97695858.69242  23858322.183 2  23858323.882 2
        40.000          21.000
  22278771.114 7 117075734.181 7  91227861.67944  22278770.518 4  22278773.707 4
        47.000          32.000
  24756021.923 5 130093760.294 5 101371781.43241  24756019.153 1  24756021.849 1
        38.000          11.000
  21409685.007 8 112508667.330 8  87669092.72746  21409684.995 6  21409686.125 6
        51.000          40.000
  24066303.253 5 126469276.296 5  98547497.82041  24066304.835 1  24066301.142 1
        36.000          14.000
  24057202.462 6 126421476.540 6  98510253.28442  24057202.800 2  24057206.662 2
        40.000          22.000
  24319442.200 6 127799559.036 6  99584076.28642  24319442.350 2  24319441.943 2
        42.000          21.000
 13  1 30  1 54 30.0000000  0 11G25G02G12G29G21G30G13G31G10G05G23
  21687991.059 7 113971187.236 7  88808735.46445  21687990.835 5  21687995.851 5
        48.000          37.000
  23548323.635 6 123747301.528 6  96426490.31143  23548323.494 3  23548323.803 3
        43.000          26.000
  24612186.421 6 129337930.511 6 100782820.49941  24612185.119 1  24612188.357 1
        40.000          19.000
  20172571.421 8 106007606.808 8  82603346.03147  20172571.497 7  20172573.704 7
        53.000          46.000
  23839917.281 6 125279616.555 6  97620494.03242  23839916.608 2  23839919.803 2
        40.000          21.000
  22260941.222 7 116982033.302 7  91154848.01044  22260940.363 4  22260942.938 4
        47.000          33.000
  24745676.789 5 130039397.573 5 101329420.91841  24745677.294 1  24745678.162 1
        37.000          10.000
  21414400.201 8 112533447.688 8  87688402.09546  21414400.483 6  21414401.581 6
        51.000          41.000
  24070858.049 4 126493227.194 4  98566160.88941  24070857.435 1  24070861.574 1
        34.000          11.000
  24044751.602 6 126356042.995 6  98459266.13542  24044752.151 2  24044753.671 2
        40.000          22.000
  24318680.926 6 127795554.087 6  99580955.53742  24318680.391 2  24318680.568 2
        42.000          20.000
 13  1 30  1 55  0.0000000  0 11G25G02G12G29G21G30G13G31G10G05G23
  21703389.499 8 114052104.289 8  88871787.69745  21703389.087 5  21703393.789 5
        50.000          37.000
  23563786.361 6 123828561.234 6  96489809.57143  23563785.750 3  23563787.032 3
        42.000          26.000
  24632854.856 5 129446538.728 5 100867450.24541  24632853.537 1  24632855.865 1
        39.000          19.000
  20174531.835 8 106017909.425 8  82611374.04147  20174531.883 7  20174534.225 7
        54.000          46.000
  23821544.198 6 125183063.191 6  97545257.67342  23821543.621 2  23821545.791 2
        40.000          21.000
  22243167.125 7 116888632.249 7  91082067.97644  22243166.814 4  22243169.457 4
        46.000          33.000
  24735432.412 5 129985566.080 5 101287474.32441  24735431.441 1  24735433.191 1
        38.000          11.000
  21419226.766 8 112558810.114 8  87708165.01346  21419226.760 6  21419227.984 6
        51.000          41.000
  24075534.738 5 126517792.597 5  98585302.76841  24075532.201 1  24075536.969 1
        38.000          12.000
  24032380.765 5 126291034.607 5  98408610.26742  24032381.392 2  24032382.521 2
        39.000          22.000
  24318030.134 6 127792133.527 6  99578290.15842  24318029.471 2  24318029.675 2
        42.000          21.000
 13  1 30  1 55 30.0000000  0 11G25G02G12G29G21G30G13G31G10G05G23
  21718851.660 7 114133359.845 7  88935103.69845  21718851.248 5  21718856.463 5
        49.000          37.000
  23579314.251 6 123910156.330 6  96553390.13843  23579313.434 3  23579314.762 3
        43.000          25.000
  24653537.656 5 129555235.870 5 100952149.27042  24653538.565 2  24653540.514 2
        39.000          20.000
  20176582.065 8 106028683.990 8  82619769.81147  20176582.268 7  20176584.518 7
        52.000          47.000
  23803202.542 6 125086676.535 6  97470151.21942  23803200.426 2  23803204.995 2
        40.000          21.000
  22225451.228 7 116795533.503 7  91009523.49744  22225450.262 4  22225453.161 4
        47.000          33.000
  24725288.682 5 129932267.801 5 101245943.18841  24725289.313 1  24725289.122 1
        37.000           8.000
  21424163.832 8 112584753.903 8  87728380.94446  21424163.931 6  21424164.962 6
        50.000          40.000
  24080327.339 6 126542971.695 6  98604922.81241  24080326.341 1  24080331.442 1
        41.000          14.000
  24020091.497 5 126226453.375 5  98358287.25642  24020091.492 2  24020093.397 2
        39.000          22.000
  24317488.828 6 127789297.442 6  99576080.22642  24317489.317 2  24317489.789 2
        41.000          20.000
 13  1 30  1 56  0.0000000  0 11G25G02G12G29G21G30G13G31G10G05G23
  21734378.483 7 114214952.473 7  88998682.34845  21734377.898 5  21734382.986 5
        49.000          37.000
  23594904.484 6 123992084.496 6  96617230.24442  23594904.566 2  23594905.679 2
        43.000          24.000
  24674239.917 6 129664020.690 6 101036916.63442  24674239.398 2  24674241.344 2
        40.000          20.000
  20178722.243 8 106039929.370 8  82628532.44447  20178722.180 7  20178724.414 7
        53.000          46.000
  23784892.785 6 124990458.645 6  97395176.24542  23784891.914 2  23784894.327 2
        40.000          21.000
  22207793.135 7 116702739.006 7  90937216.10444  22207792.004 4  22207794.973 4
        47.000          33.000
  24715249.407 5 129879504.719 5 101204829.11741  24715246.079 1  24715247.983 1
        36.000           9.000
  21429210.988 8 112611278.113 8  87749049.15546  21429211.139 6  21429212.471 6
        51.000          40.000
  24085232.779 5 126568763.259 5  98625020.14541  24085232.133 1  24085236.216 1
        35.000          14.000
  24007883.712 6 126162302.019 6  98308299.20242  24007883.447 2  24007885.250 2
        40.000          21.000
  24317060.700 6 127787045.594 6  99574325.52342  24317061.090 2  24317059.576 2
        42.000          20.000
 13  1 30  1 56 30.0000000  0 11G25G02G12G29G21G30G13G31G10G05G23
  21749968.737 7 114296880.907 7  89062522.67945  21749968.381 5  21749973.171 5
        47.000          37.000
  23610557.919 6 124074343.523 6  96681328.23442  23610556.909 2  23610557.652 2
        41.000          22.000
  24694957.596 6 129772892.106 6 101121751.45442  24694958.375 2  24694959.319 2
        40.000          21.000
  20180951.829 8 106051645.595 8  82637661.97447  20180951.841 7  20180953.806 7
        52.000          46.000
  23766616.235 6 124894411.615 6  97320334.42742  23766614.710 2  23766617.185 2
        40.000          21.000
  22190192.955 7 116610251.713 7  90865148.08144  22190192.505 4  22190195.338 4
        48.000          33.000
  24705309.103 5 129827278.918 5 101164133.68641  24705309.782 1  24705310.712 1
        37.000           8.000
  21434369.452 8 112638382.506 8  87770169.45446  21434368.989 6  21434370.221 6
        51.000          41.000
  24090257.364 5 126595166.620 5  98645594.17341  24090257.010 1  24090259.803 1
        39.000          13.000
  23995758.719 6 126098583.114 6  98258648.15542  23995758.307 2  23995760.961 2
        41.000          21.000
  24316744.490 6 127785378.001 6  99573026.12041  24316743.137 1  24316743.684 1
        40.000          18.000
 13  1 30  1 57  0.0000000  0 11G25G02G12G29G21G30G13G31G10G05G23
  21765622.582 7 114379143.672 7  89126623.52545  21765622.498 5  21765627.226 5
        48.000          37.000
  23626274.545 6 124156931.247 6  96745682.28942  23626273.045 2  23626274.121 2
        41.000          22.000
  24715691.137 5 129881848.434 5 101206652.42742  24715691.395 2  24715692.854 2
        39.000          20.000
  20183270.421 8 106063831.218 8  82647157.25847  20183270.674 7  20183272.728 7
        53.000          47.000
  23748371.534 6 124798537.119 6  97245627.02542  23748371.369 2  23748372.343 2
        41.000          22.000
  22172652.821 7 116518073.376 7  90793320.80244  22172651.585 4  22172654.422 4
        48.000          33.000
  24695474.666 5 129775592.190 5 101123858.34041  24695474.051 1  24695477.314 1
        38.000          11.000
  21439637.031 8 112666065.793 8  87791740.83346  21439636.995 6  21439638.236 6
        51.000          40.000
  24095398.765 5 126622180.818 5  98666644.20441  24095396.661 1  24095401.961 1
        37.000          14.000
  23983716.445 6 126035299.238 6  98209336.04642  23983716.325 2  23983717.739 2
        41.000          22.000
  24316538.336 6 127784294.456 6  99572181.79141  24316538.171 2  24316536.575 1
        40.000          19.000
 13  1 30  1 57 30.0000000  0 11G25G02G12G29G21G30G13G31G10G05G23
  21781340.017 7 114461739.463 7  89190983.86845  21781339.968 5  21781344.533 5
        48.000          37.000
  23642051.360 6 124239845.421 6  96810290.72842  23642050.694 2  23642051.715 2
        41.000          22.000
  24736439.255 5 129990888.556 5 101291618.72141  24736439.568 1  24736441.712 1
        38.000          19.000
  20185678.876 8 106076486.186 8  82657018.27347  20185678.835 7  20185680.906 7
        54.000          46.000
  23730161.039 6 124702837.456 6  97171055.89142  23730159.654 2  23730161.432 2
        40.000          22.000
  22155170.318 7 116426206.686 7  90721736.36444  22155169.826 4  22155172.435 4
        46.000          33.000
  24685742.559 5 129724446.639 5 101084004.71241  24685742.408 1  24685741.797 1
        38.000          13.000
  21445014.616 8 112694327.102 8  87813762.62646  21445014.837 6  21445016.049 6
        50.000          40.000
  24100655.193 5 126649805.300 5  98688169.80041  24100653.338 1  24100658.304 1
        36.000          12.000
  23971755.794 5 125972453.177 5  98160365.11342  23971756.533 2  23971759.278 2
        39.000          23.000
  24316443.348 6 127783794.719 6  99571792.39941  24316442.291 1  24316441.106 1
        42.000          19.000
 13  1 30  1 58  0.0000000  0 11G25G02G12G29G21G30G13G31G10G05G23
  21797121.231 7 114544666.808 7  89255602.56545  21797120.613 5  21797125.010 5
        48.000          37.000
  23657891.008 6 124323084.061 6  96875152.02942  23657889.932 2  23657892.458 2
        41.000          20.000
  24757206.149 5 130100010.911 5 101376649.09441  24757205.421 1  24757206.956 1
        38.000          19.000
  20188176.242 8 106089609.275 8  82667244.05747  20188176.082 7  20188178.133 7
        54.000          46.000
  23711982.299 6 124607314.193 6  97096622.19042  23711981.366 2  23711984.616 2
        40.000          22.000
  22137748.825 7 116334653.858 7  90650396.50244  22137748.036 4  22137750.640 4
        48.000          33.000
  24676111.723 5 129673844.016 5 101044574.05441  24676111.331 1  24676115.433 1
        37.000          13.000
  21450502.930 8 112723165.838 8  87836234.36446  21450502.711 6  21450503.948 6
        52.000          41.000
  24106027.788 5 126678038.837 5  98710169.96641  24106026.402 1  24106029.553 1
        37.000          12.000
  23959881.791 6 125910047.393 6  98111737.26342  23959881.949 2  23959882.925 2
        41.000          24.000
  24316458.219 6 127783878.459 6  99571857.65242  24316457.179 1  24316458.753 2
        41.000          20.000
 13  1 30  1 58 30.0000000  0 11G25G02G12G29G21G30G13G31G10G05G23
  21812964.333 7 114627924.395 7  89320478.59045  21812964.010 5  21812968.526 5
        47.000          37.000
  23673792.538 6 124406644.504 6  96940264.06742  23673791.916 2  23673792.363 2
        41.000          20.000
  24777987.768 5 130209214.344 5 101461742.58941  24777986.378 1  24777988.919 1
        38.000          19.000
  20190762.141 8 106103200.140 8  82677834.34647  20190762.246 7  20190764.353 7
        54.000          46.000
  23693839.215 6 124511969.972 6  97022328.04342  23693838.608 2  23693841.327 2
        41.000          22.000
  22120387.084 7 116243417.468 7  90579303.21144  22120386.098 4  22120389.211 4
        48.000          33.000
  24666587.125 5 129623786.424 5 101005568.15441  24666586.985 1  24666591.557 1
        37.000          14.000
  21456099.911 8 112752581.192 8  87859155.41146  21456100.193 6  21456101.496 6
        51.000          40.000
  24111517.603 5 126706880.334 5  98732643.82841  24111515.354 1  24111516.977 1
        38.000          12.000
  23948089.616 6 125848084.248 6  98063454.30742  23948089.863 2  23948091.656 2
        42.000          24.000
  24316585.668 6 127784545.704 6  99572377.56041  24316584.437 1  24316586.486 1
        42.000          19.000
 13  1 30  1 59  0.0000000  0 11G25G02G12G29G21G30G13G31G10G05G23
  21828870.159 7 114711510.734 7  89385610.78345  21828869.985 5  21828874.886 5
        47.000          36.000
  23689753.447 6 124490524.587 6  97005625.16842  23689752.734 2  23689754.729 2
        40.000          22.000
  24798782.310 5 130318497.548 5 101546898.26841  24798782.925 1  24798784.034 1
        39.000          18.000
  20193437.348 8 106117258.045 8  82688788.55447  20193437.409 7  20193439.498 7
        52.000          47.000
  23675730.616 6 124416806.310 6  96948174.52942  23675730.294 2  23675731.772 2
        41.000          23.000
  22103086.102 7 116152499.691 7  90508458.18344  22103085.002 4  22103087.919 4
        47.000          34.000
  24657166.154 5 129574275.553 5 100966988.31241  24657166.229 1  24657167.948 1
        37.000          13.000
  21461807.807 7 112782571.979 7  87882524.84046  21461807.508 6  21461808.484 6
        49.000          40.000
  24117121.400 5 126736328.870 5  98755590.74241  24117119.809 1  24117121.672 1
        38.000          13.000
  23936384.056 6 125786566.505 6  98015518.43642  23936383.408 2  23936385.574 2
        42.000          24.000
  24316823.432 6 127785796.377 6  99573352.10442  24316823.243 2  24316823.247 2
        41.000          20.000
 13  1 30  1 59 30.0000000  0 11G25G02G12G29G21G30G13G31G10G05G23
  21844838.285 7 114795424.538 7  89450998.14945  21844838.000 5  21844843.090 5
        48.000          36.000
  23705777.259 6 124574721.862 6  97071233.42242  23705777.207 2  23705776.407 2
        41.000          22.000
  24819592.821 5 130427859.296 5 101632115.17641  24819592.334 1  24819595.495 1
        38.000          18.000
  20196201.293 8 106131782.423 8  82700106.25447  20196201.215 7  20196203.375 7
        53.000          46.000
  23657656.932 6 124321825.093 6  96874163.20842  23657655.450 2  23657658.017 2
        41.000          23.000
  22085846.096 7 116061903.017 7  90437863.37644  22085845.067 4  22085848.178 4
        47.000          34.000
  24647848.154 5 129525313.396 5 100928835.98541  24647849.602 1  24647850.292 1
        37.000          14.000
  21467623.503 8 112813137.453 8  87906342.08846  21467623.669 6  21467624.921 6
        51.000          40.000
  24122840.090 5 126766383.738 5  98779010.09341  24122838.500 1  24122842.505 1
        39.000          14.000
  23924762.198 6 125725496.653 6  97967931.56442  23924762.613 2  23924765.471 2
        42.000          24.000
  24317172.435 6 127787630.315 6  99574781.15241  24317171.712 2  24317173.146 1
        42.000          19.000
 13  1 30  2  0  0.0000000  0 11G25G02G12G29G21G30G13G31G10G05G23
  21860868.891 7 114879664.323 7  89516639.52845  21860868.568 5  21860873.385 5
        48.000          36.000
  23721857.779 6 124659234.071 6  97137087.09742  23721858.346 2  23721858.101 2
        40.000          21.000
  24840419.604 5 130537298.015 5 101717392.05341  24840419.508 1  24840421.308 1
        39.000          18.000
  20199053.698 8 106146772.389 8  82711786.74847  20199053.737 7  20199055.894 7
        53.000          46.000
  23639617.174 6 124227028.486 6  96800295.73942  23639616.483 2  23639618.199 2
        42.000          23.000
  22068667.636 7 115971629.673 7  90367520.51544  22068666.673 4  22068669.388 4
        48.000          34.000
  24638635.106 5 129476901.794 5 100891112.66441  24638634.705 1  24638637.588 1
        38.000          14.000
  21473549.660 8 112844276.635 8  87930606.37846  21473549.360 6  21473550.412 6
        50.000          40.000
  24128675.686 5 126797043.728 5  98802900.93841  24128673.029 1  24128677.096 1
        39.000          16.000
  23913226.101 6 125664877.311 6  97920695.74542  23913226.562 2  23913228.669 2
        42.000          24.000
  24317632.412 6 127790047.127 6  99576664.38641  24317631.931 1  24317631.128 1
        40.000          19.000
 13  1 30  2  0 30.0000000  0 11G25G02G12G29G21G30G13G31G10G05G23
  21876960.798 7 114964228.686 7  89582533.83245  21876960.598 5  21876965.517 5
        48.000          36.000
  23738000.669 6 124744059.428 6  97203184.77342  23737999.513 2  23738000.078 2
        41.000          21.000
  24861257.895 5 130646812.307 5 101802727.79341  24861258.770 1  24861261.238 1
        38.000          19.000
  20201994.783 8 106162226.979 8  82723829.28847  20201994.684 7  20201996.772 7
        53.000          46.000
  23621612.980 6 124132418.542 6  96726573.74442  23621612.932 2  23621614.684 2
        41.000          23.000
  22051550.839 7 115881682.081 7  90297431.48444  22051550.092 4  22051553.153 4
        48.000          34.000
  24629529.531 5 129429042.795 5 100853819.96241  24629527.611 1  24629531.784 1
        38.000          14.000
  21479583.354 8 112875988.598 8  87955316.98946  21479583.921 6  21479585.198 6
        50.000          40.000
  24134623.484 6 126828307.571 6  98827262.41641  24134623.821 1  24134625.995 1
        40.000          16.000
  23901777.820 6 125604711.010 6  97873812.93342  23901777.619 2  23901780.103 2
        41.000          24.000
  24318203.065 5 127793046.440 5  99579001.49541  24318202.943 1  24318203.651 1
        39.000          18.000
 13  1 30  2  1  0.0000000  0 11G25G02G12G29G21G30G13G31G10G05G23
  21893114.751 7 115049116.198 7  89648679.92745  21893114.374 5  21893118.852 5
        48.000          36.000
  23754201.448 6 124829195.201 6  97269524.30042  23754200.570 2  23754201.216 2
        40.000          21.000
  24882113.245 5 130756401.159 5 101888121.65441  24882112.745 1  24882114.828 1
        39.000          18.000
  20205023.905 8 106178145.584 8  82736233.39847  20205023.904 7  20205025.962 7
        53.000          46.000
  23603645.392 6 124037997.153 6  96652998.64042  23603644.440 2  23603647.575 2
        40.000          23.000
  22034496.891 7 115792062.519 7  90227598.05344  22034496.088 4  22034499.048 4
        47.000          34.000
  24620526.650 5 129381737.550 5 100816958.73241  24620527.440 1  24620528.616 1
        36.000          14.000
  21485727.716 8 112908272.255 8  87980473.07846  21485727.467 6  21485728.660 6
        51.000          40.000
  24140687.322 6 126860174.280 6  98852093.62741  24140685.889 1  24140690.504 1
        40.000          17.000
  23890414.109 6 125545000.009 6  97827284.91042  23890414.411 2  23890416.420 2
        41.000          24.000
  24318884.116 6 127796627.866 6  99581792.25741  24318884.323 1  24318884.352 1
        40.000          19.000
 13  1 30  2  1 30.0000000  0 11G25G02G12G29G21G30G13G31G10G05G23
  21909329.445 7 115134325.508 7  89715076.78545  21909329.092 5  21909333.801 5
        48.000          36.000
  23770460.207 6 124914639.136 6  97336103.99342  23770459.818 2  23770459.914 2
        40.000          20.000
  24902981.801 5 130866063.350 5 101973572.64141  24902980.545 1  24902983.340 1
        38.000          18.000
  20208141.375 8 106194527.398 8  82748998.44647  20208141.228 7  20208143.340 7
        52.000          46.000
  23585714.568 6 123943766.269 6  96579571.99242  23585712.917 2  23585715.334 2
        41.000          23.000
  22017506.175 7 115702773.661 7  90158022.31544  22017504.931 4  22017508.208 4
        48.000          34.000
  24611630.202 5 129334988.490 5 100780530.93941  24611630.243 1  24611631.372 1
        36.000          14.000
  21491979.447 8 112941126.701 8  88006073.93746  21491979.542 6  21491980.667 6
        51.000          40.000
  24146866.097 5 126892642.936 5  98877393.86941  24146865.253 1  24146867.731 1
        38.000          17.000
  23879139.905 6 125485747.126 6  97781113.86343  23879140.336 3  23879141.443 3
        42.000          26.000
  24319677.667 5 127800790.999 5  99585036.26541  24319676.864 1  24319676.318 1
        39.000          19.000
 13  1 30  2  2  0.0000000  0 12G25G02G12G29G21G30G13G31G10G05G16G23
  21925604.416 7 115219855.081 7  89781723.18345  21925604.680 5  21925609.729 5
        48.000          36.000
  23786777.697 6 125000389.254 6  97402922.29041  23786776.726 1  23786778.133 1
        41.000          19.000
  24923861.854 5 130975797.272 5 102059079.51641  24923862.879 1  24923865.453 1
        38.000          18.000
  20211346.751 8 106211371.531 8  82762123.74347  20211346.654 7  20211348.781 7
        53.000          46.000
  23567819.512 6 123849726.962 6  96506294.62342  23567818.303 2  23567820.580 2
        42.000          23.000
  22000577.885 7 115613817.585 7  90088705.89044  22000577.201 4  22000579.970 4
        47.000          33.000
  24602840.634 5 129288797.170 5 100744537.76741  24602840.985 1  24602843.141 1
        36.000          12.000
  21498339.909 8 112974550.822 8  88032118.69746  21498340.007 6  21498340.845 6
        52.000          40.000
  24153159.488 6 126925712.306 6  98903162.19941  24153158.628 1  24153161.411 1
        40.000          17.000
  23867951.703 6 125426954.722 6  97735301.61043  23867951.582 3  23867953.683 3
        42.000          26.000
  24644150.106 5 129505878.658 5
        38.000
  24320581.112 5 127805535.669 5  99588733.42041  24320579.998 1  24320580.248 1
        38.000          19.000
 13  1 30  2  2 30.0000000  0 12G25G02G12G29G21G30G13G31G10G05G16G23
  21941941.581 7 115305703.565 7  89848618.09545  21941941.281 5  21941945.990 5
        47.000          36.000
  23803153.888 6 125086443.087 6  97469977.23941  23803153.472 1  23803153.661 1
        41.000          19.000
  24944756.793 5 131085601.661 5 102144641.33441  24944757.785 1  24944761.472 1
        36.000          18.000
  20214640.012 8 106228677.378 8  82775608.81747  20214639.811 7  20214641.943 7
        53.000          46.000
  23549961.753 6 123755882.613 6  96433169.16942  23549960.443 2  23549962.132 2
        42.000          23.000
  21983713.899 7 115525196.771 7  90019650.70844  21983713.268 4  21983716.046 4
        47.000          33.000
  24594158.256 5 129243165.398 5 100708980.55241  24594158.573 1  24594158.943 1
        36.000          14.000
  21504808.615 8 113008543.624 8  88058606.58646  21504808.550 6  21504809.577 6
        52.000          40.000
  24159565.296 5 126959380.905 5  98929397.47241  24159566.448 1  24159568.735 1
        38.000          17.000
  23856851.316 6 125368624.937 6  97689849.80843  23856853.213 3  23856854.788 3
        42.000          27.000
  24623765.468 5 129398746.202 5 100830207.94641  24623764.217 1  24623765.987 1
        38.000          14.000
  24321591.547 5 127810861.403 5  99592883.33541  24321592.813 1  24321592.747 1
        38.000          18.000
 13  1 30  2  3  0.0000000  0 12G25G02G12G29G21G30G13G31G10G05G16G23
  21958338.230 7 115391869.452 7  89915760.33445  21958338.200 5  21958342.709 5
        48.000          36.000
  23819587.126 5 125172798.355 5  97537267.06941  23819585.896 1  23819586.898 1
        38.000          18.000
  24965665.265 5 131195475.139 5 102230256.93841  24965665.540 1  24965668.340 1
        37.000          17.000
  20218020.670 8 106246444.154 8  82789453.05547  20218020.647 7  20218022.794 7
        53.000          46.000
  23532140.527 6 123662234.433 6  96360196.57942  23532139.776 2  23532141.080 2
        42.000          24.000
  21966914.140 7 115436913.502 7  89950858.54744  21966913.693 4  21966916.616 4
        48.000          34.000
  24585580.337 5 129198094.779 5 100673860.55541  24585580.353 1  24585584.147 1
        37.000          14.000
  21511385.307 8 113043104.066 8  88085536.78546  21511384.974 6  21511386.218 6
        51.000          40.000
  24166086.590 6 126993647.577 6  98956098.77541  24166085.129 1  24166088.963 1
        40.000          16.000
  23845841.251 6 125310760.725 6  97644760.86443  23845841.248 3  23845843.118 3
        42.000          26.000
  24603393.550 5 129291694.675 5 100746791.16341  24603391.253 1  24603393.504 1
        38.000          14.000
  24322717.294 6 127816767.875 6  99597485.76341  24322716.375 1  24322716.821 1
        41.000          19.000
 13  1 30  2  3 30.0000000  0 12G25G02G12G29G21G30G13G31G10G05G16G23
  21974794.919 7 115478351.357 7  89983148.81345  21974794.842 5  21974799.725 5
        47.000          35.000
  23836074.540 5 125259452.607 5  97604789.84641  23836073.935 1  23836078.543 1
        35.000          16.000
  24986587.617 5 131305416.679 5 102315925.60841  24986587.427 1  24986590.474 1
        38.000          17.000
  20221489.291 8 106264671.122 8  82803655.89347  20221489.125 7  20221491.233 7
        53.000          46.000
  23514358.062 6 123568784.227 6  96287378.24542  23514356.723 2  23514359.042 2
        42.000          24.000
  21950179.674 7 115348970.485 7  89882331.52244  21950178.487 4  21950181.273 4
        48.000          34.000
  24577110.150 5 129153587.361 5 100639179.48441  24577110.591 1  24577113.264 1
        36.000          13.000
  21518069.540 8 113078230.923 8  88112908.35446  21518069.382 6  21518070.632 6
        51.000          40.000
  24172722.075 6 127028511.709 6  98983265.63541  24172719.843 1  24172722.743 1
        41.000          19.000
  23834918.713 6 125253364.112 6  97600036.23943  23834918.892 3  23834920.109 3
        42.000          26.000
  24583036.730 5 129184725.772 5 100663438.76141  24583036.309 1  24583038.153 1
        37.000          14.000
  24323953.006 6 127823254.630 6  99602540.38541  24323951.943 1  24323950.525 1
        41.000          19.000
 13  1 30  2  4  0.0000000  0 12G25G02G12G29G21G30G13G31G10G05G16G23
  21991311.982 7 115565147.820 7  90050782.39945  21991311.923 5  21991316.565 5
        48.000          35.000
  23852623.519 5 125346403.676 5  97672543.86441  23852622.227 1  23852623.008 1
        39.000          17.000
  25007521.059 5 131415424.643 5 102401646.06941  25007520.770 1  25007522.815 1
        37.000          17.000
  20225044.754 8 106283357.365 8  82818216.60147  20225044.922 7  20225047.167 7
        53.000          46.000
  23496611.758 6 123475534.415 6  96214716.07742  23496611.549 2  23496613.793 2
        42.000          24.000
  21933508.836 7 115261369.614 7  89814071.10444  21933508.452 4  21933511.409 4
        47.000          34.000
  24568749.485 5 129109644.376 5 100604938.22941  24568749.329 1  24568750.187 1
        36.000          12.000
  21524861.577 8 113113923.175 8  88140720.48146  21524861.452 6  21524862.671 6
        52.000          41.000
  24179468.282 5 127063971.747 5  99010896.83041  24179466.329 1  24179472.116 1
        39.000          19.000
  23824084.976 6 125196437.729 6  97555678.06343  23824085.763 3  23824087.708 3
        42.000          27.000
  24562696.758 5 129077841.119 5 100580152.02341  24562696.691 1  24562699.371 1
        37.000          13.000
  24325295.735 6 127830321.136 6  99608046.75641  24325295.277 1  24325295.405 1
        40.000          18.000
 13  1 30  2  4 30.0000000  0 12G25G02G12G29G21G30G13G31G10G05G16G23
  22007888.537 7 115652257.396 7  90118659.98145  22007888.238 5  22007893.020 5
        48.000          35.000
  23869223.071 5 125433649.262 5  97740527.49041  23869223.170 1  23869224.704 1
        35.000          14.000
  25028466.790 5 131525497.667 5 102487417.14241  25028466.721 1  25028470.991 1
        36.000          17.000
  20228687.762 8 106302502.139 8  82833134.60747  20228688.051 7  20228690.237 7
        52.000          46.000
  23478905.013 6 123382487.041 6  96142211.64442  23478905.736 2  23478907.297 2
        41.000          24.000
  21916905.620 7 115174113.642 7  89746079.44244  21916904.210 4  21916907.196 4
        47.000          34.000
  24560493.776 5 129066267.614 5 100571138.14941  24560495.684 1  24560494.987 1
        37.000          12.000
  21531761.470 8 113150179.741 8  88168972.33746  21531761.092 6  21531762.023 6
        51.000          40.000
  24186330.369 6 127100026.370 6  99038991.31941  24186328.751 1  24186331.152 1
        40.000          19.000
  23813343.461 6 125139983.918 6  97511688.08943  23813342.941 3  23813344.666 3
        43.000          27.000
  24542374.229 5 128971042.409 5 100496932.25441  24542371.971 1  24542376.634 1
        38.000          14.000
  24326751.641 6 127837967.125 6  99614004.66441  24326751.107 2  24326750.857 1
        40.000          19.000
 13  1 30  2  5  0.0000000  0 12G25G02G12G29G21G30G13G31G10G05G16G23
  22024524.269 7 115739678.570 7  90186780.36245  22024524.042 5  22024528.829 5
        46.000          35.000
  23885879.050 4 125521187.250 4  97808738.89441  23885881.720 1  23885882.145 1
        32.000          11.000
  25049426.838 5 131635634.637 5 102573238.09841  25049425.666 1  25049428.886 1
        38.000          18.000
  20232418.157 8 106322104.323 8  82848409.03147  20232418.295 7  20232420.369 7
        53.000          46.000
  23461238.230 6 123289643.286 6  96069865.86942  23461237.464 2  23461239.527 2
        42.000          24.000
  21900366.858 7 115087204.822 7  89678358.27444  21900366.154 4  21900369.019 4
        49.000          34.000
  24552348.763 5 129023458.923 5 100537780.72941  24552348.123 1  24552350.182 1
        38.000          14.000
  21538767.303 8 113186999.496 8  88197663.03946  21538767.476 6  21538768.602 6
        50.000          40.000
  24193304.199 5 127136674.215 5  99067548.08641  24193303.232 1  24193306.040 1
        39.000          19.000
  23802690.167 6 125084005.024 6  97468068.18743  23802690.859 3  23802692.696 3
        42.000          27.000
  24522068.355 5 128864331.205 5 100413780.64341  24522065.415 1  24522068.939 1
        39.000          15.000
  24328317.021 6 127846191.824 6  99620413.51442  24328317.213 2  24328315.762 2
        41.000          20.000
 13  1 30  2  5 30.0000000  0 12G25G02G12G29G21G30G13G31G10G05G16G23
  22041218.895 7 115827409.928 7  90255142.43845  22041218.554 5  22041223.451 5
        46.000          35.000
  23902595.011 4 125609015.344 4  97877176.38541  23902596.077 1  23902592.342 1
        34.000           7.000
  25070396.244 5 131745834.125 5 102659107.77741  25070395.071 1  25070398.905 1
        37.000          16.000
  20236235.647 8 106342163.678 8  82864039.69647  20236235.436 7  20236237.601 7
        53.000          46.000
  23443609.328 6 123197005.387 6  95997680.50342  23443609.288 2  23443611.238 2
        42.000          24.000
  21883895.468 7 115000645.569 7  89610909.51044  21883894.466 4  21883897.470 4
        49.000          34.000
  24544310.672 5 128981219.518 5 100504866.93341  24544312.594 1  24544312.510 1
        37.000          14.000
  21545880.979 8 113224381.062 8  88226791.52346  21545880.988 6  21545882.110 6
        50.000          40.000
  24200389.587 5 127173914.264 5  99096566.28641  24200388.529 1  24200392.238 1
        38.000          19.000
  23792128.484 6 125028503.330 6  97424820.12043  23792128.608 3  23792130.798 3
        43.000          26.000
  24501778.615 5 128757709.178 5 100330698.57541  24501777.403 1  24501780.583 1
        39.000          16.000
  24329993.343 6 127854994.713 6  99627272.91842  24329991.305 2  24329991.545 2
        41.000          20.000
 13  1 30  2  6  0.0000000  0 12G25G02G12G29G21G30G13G31G10G05G16G23
  22057971.905 7 115915449.998 7  90323745.07245  22057971.617 5  22057976.995 5
        46.000          35.000
  23919362.250 4 125697130.979 4  97945837.91741  23919359.863 1  23919364.905 1
        34.000          10.000
  25091377.667 5 131856094.440 5 102745024.85041  25091376.496 1  25091380.142 1
        37.000          16.000
  20240139.409 8 106362678.976 8  82880025.64647  20240139.355 7  20240141.603 7
        53.000          46.000
  23426021.026 6 123104575.605 6  95925657.31043  23426020.143 3  23426022.691 3
        42.000          25.000
  21867490.763 7 114914438.212 7  89543734.94344  21867489.586 4  21867492.554 4
        48.000          34.000
  24536379.895 5 128939551.298 5 100472398.24841  24536380.232 1  24536382.762 1
        36.000          13.000
  21553101.346 8 113262323.117 8  88256356.75046  21553101.137 6  21553102.379 6
        51.000          40.000
  24207588.038 5 127211744.835 5  99126044.66441  24207588.909 1  24207590.866 1
        37.000          18.000
  23781658.309 6 124973481.164 6  97381945.72343  23781657.787 3  23781660.116 3
        43.000          27.000
  24481507.740 5 128651177.902 5 100247687.18441  24481505.857 1  24481508.001 1
        39.000          17.000
  24331776.037 5 127864375.178 5  99634582.35341  24331775.640 1  24331776.483 1
        39.000          17.000
 13  1 30  2  6 30.0000000  0 12G25G02G12G29G21G30G13G31G10G05G16G23
  22074783.915 7 116003797.315 7  90392587.12145  22074783.822 4  22074788.783 5
        47.000          35.000
  23936185.198 5 125785531.901 5  98014721.71541  23936185.475 1  23936185.412 1
        35.000          11.000
  25112368.879 5 131966414.912 5 102830988.73441  25112371.524 1  25112374.893 1
        35.000          16.000
  20244129.929 8 106383649.430 8  82896366.25947  20244129.994 7  20244132.201 7
        52.000          46.000
  23408471.531 6 123012356.002 6  95853797.90243  23408471.503 3  23408473.871 3
        42.000          25.000
  21851153.213 7 114828585.203 7  89476836.49944  21851152.417 4  21851154.906 4
        47.000          34.000
  24528559.249 4 128898456.035 4 100440376.00541  24528560.312 1  24528563.577 1
        34.000          15.000
  21560427.753 8 113300824.856 8  88286358.09746  21560427.827 6  21560428.972 6
        51.000          40.000
  24214900.573 5 127250164.305 5  99155981.85541  24214899.130 1  24214902.075 1
        36.000          17.000
  23771280.493 6 124918941.087 6  97339446.98243  23771279.966 3  23771281.066 3
        44.000          27.000
  24461250.522 5 128544739.114 5 100164747.86941  24461252.048 1  24461254.214 1
        39.000          16.000
  24333671.667 5 127874332.847 5  99642341.59641  24333672.185 1  24333670.584 1
        39.000          18.000
 13  1 30  2  7  0.0000000  0 12G25G02G12G29G21G30G13G31G10G05G16G23
  22091654.635 7 116092450.360 7  90461667.40145  22091654.132 5  22091659.151 5
        48.000          35.000
  23953062.089 5 125874216.016 5  98083826.19141  23953063.008 1  23953060.656 1
        37.000          13.000
  25133374.451 5 132076794.293 5 102916998.55941  25133375.600 1  25133379.314 1
        36.000          18.000
  20248207.032 8 106405074.047 8  82913060.76547  20248207.042 7  20248209.209 7
        53.000          46.000
  23390963.350 6 122920347.751 6  95782103.17743  23390962.857 3  23390965.430 3
        43.000          25.000
  21834883.824 7 114743088.901 7  89410216.00044  21834883.168 5  21834885.943 4
        49.000          34.000
  24520850.030 5 128857935.267 5 100408801.35441  24520849.959 1  24520852.560 1
        36.000          15.000
  21567860.366 8 113339884.904 8  88316794.48546  21567860.572 6  21567861.888 6
        52.000          40.000
  24222321.446 5 127289171.824 5  99186377.39541  24222320.787 1  24222324.199 1
        35.000          13.000
  23760994.024 6 124864885.374 6  97297325.67243  23760993.818 3  23760994.848 3
        44.000          27.000
  24441013.577 5 128438394.443 5 100081881.89141  24441014.591 1  24441017.439 1
        38.000          17.000
  24335677.999 6 127884866.999 6  99650550.02641  24335676.363 1  24335675.509 1
        41.000          18.000
 13  1 30  2  7 30.0000000  0 12G25G02G12G29G21G30G13G31G10G05G16G23
  22108582.008 7 116181407.709 7  90530984.79244  22108581.800 4  22108587.160 4
        47.000          34.000
  23969990.932 5 125963181.148 5  98153149.79041  23969990.158 1  23969991.713 1
        38.000          13.000
  25154392.405 5 132187230.457 5 103003052.70841  25154390.887 1  25154394.405 1
        35.000          15.000
  20252370.033 8 106426951.952 8  82930108.48547  20252370.288 7  20252372.415 7
        52.000          46.000
  23373495.159 6 122828553.096 6  95710574.88443  23373494.894 3  23373496.890 3
        40.000          25.000
  21818682.822 7 114657951.592 7  89343875.23945  21818682.046 4  21818684.722 5
        49.000          35.000
  24513248.554 5 128817990.030 5 100377675.23341  24513248.279 1  24513251.647 1
        36.000          14.000
  21575399.639 8 113379502.273 8  88347665.15646  21575399.547 6  21575400.757 6
        51.000          40.000
  24229856.947 5 127328766.185 5  99217230.10041  24229857.392 1  24229859.878 1
        37.000          16.000
  23750799.833 6 124811316.257 6  97255583.51143  23750799.523 3  23750801.395 3
        43.000          27.000
  24420796.213 5 128332145.747 5  99999090.72541  24420796.184 1  24420798.278 1
        38.000          16.000
  24337790.099 6 127895977.109 6  99659207.23441  24337790.403 1  24337789.013 1
        40.000          19.000
 13  1 30  2  8  0.0000000  0 12G25G02G12G29G21G30G13G31G10G05G16G23
  22125567.861 7 116270667.838 7  90600538.10445  22125567.692 5  22125572.993 5
        47.000          35.000
  23986973.064 5 126052424.715 5  98222690.16141  23986973.953 1  23986974.274 1
        38.000          17.000
  25175417.800 4 132297722.626 4 103089150.42741  25175415.293 1  25175420.832 1
        34.000          13.000
  20256619.690 8 106449282.490 8  82947508.90547  20256619.622 7  20256621.800 7
        53.000          46.000
  23356067.924 6 122736974.607 6  95639215.05043  23356068.774 3  23356070.431 3
        42.000          25.000
  21802550.420 7 114573175.895 7  89277816.25345  21802549.708 5  21802552.558 5
        49.000          35.000
  24505756.806 5 128778622.103 5 100346998.94141  24505756.502 1  24505758.112 1
        37.000          15.000
  21583044.167 8 113419675.265 8  88378968.77246  21583044.316 6  21583045.319 6
        51.000          40.000
  24237502.355 5 127368945.630 5  99248538.75541  24237501.834 1  24237506.667 1
        35.000          15.000
  23740697.912 6 124758236.093 6  97214222.37843  23740698.664 3  23740699.915 3
        43.000          27.000
  24400597.410 5 128225994.741 5  99916375.66541  24400595.393 1  24400598.334 1
        39.000          17.000
  24340014.099 6 127907662.429 6  99668312.66041  24340014.302 1  24340013.740 1
        40.000          19.000
 13  1 30  2  8 30.0000000  0 12G25G02G12G29G21G30G13G31G10G05G16G23
  22142611.375 7 116360229.276 7  90670326.21844  22142610.715 4  22142615.928 4
        47.000          34.000
  24004009.180 5 126141944.504 5  98292445.76741  24004008.583 1  24004010.859 1
        39.000          18.000
  25196451.663 4 132408269.466 4 103175290.72141  25196454.647 1  25196456.319 1
        33.000          13.000
  20260955.065 8 106472064.667 8  82965261.25547  20260954.935 7  20260957.070 7
        54.000          46.000
  23338682.724 6 122645613.235 6  95568024.37543  23338682.825 3  23338684.573 3
        42.000          25.000
  21786487.919 7 114488763.982 7  89212040.73745  21786486.947 5  21786489.508 5
        49.000          35.000
  24498376.342 5 128739833.218 5 100316773.83241  24498375.504 1  24498377.260 1
        39.000          15.000
  21590794.374 8 113460402.617 8  88410704.36045  21590794.459 5  21590795.609 5
        51.000          39.000
  24245261.337 5 127409708.413 5  99280301.95541  24245260.934 1  24245263.272 1
        36.000          13.000
  23730691.342 6 124705646.798 6  97173243.71443  23730691.661 3  23730693.598 3
        44.000          28.000
  24380416.219 5 128119942.941 5  99833737.89341  24380414.321 1  24380418.108 1
        38.000          17.000
  24342347.696 5 127919922.306 5  99677865.80841  24342348.006 1  24342346.404 1
        39.000          19.000
 13  1 30  2  9  0.0000000  0 12G25G02G12G29G21G30G13G31G10G05G16G23
  22159711.285 7 116450090.526 7  90740347.94244  22159710.794 4  22159716.114 4
        47.000          34.000
  24021096.301 6 126231738.105 6  98362414.79441  24021094.660 1  24021095.770 1
        41.000          18.000
  25217499.784 5 132518869.722 5 103261472.67241  25217500.564 1  25217502.012 1
        36.000          16.000
  20265375.769 8 106495297.514 8  82983364.77247  20265375.794 7  20265378.088 7
        53.000          46.000
  23321339.438 6 122554471.382 6  95497004.75643  23321339.202 3  23321340.675 3
        42.000          25.000
  21770494.174 7 114404718.173 7  89146550.49145  21770493.360 5  21770495.867 5
        48.000          35.000
  24491105.076 5 128701624.515 5 100287000.78941  24491105.451 1  24491106.293 1
        39.000          16.000
  21598649.613 8 113501683.415 8  88442871.20646  21598649.999 5  21598651.126 6
        51.000          40.000
  24253127.454 5 127451053.613 5  99312519.05541  24253127.616 1  24253127.987 1
        37.000          12.000
  23720777.479 6 124653551.118 6  97132649.68743  23720777.426 3  23720779.295 3
        42.000          27.000
  24360255.245 5 128013992.275 5  99751178.95141  24360253.136 1  24360255.142 1
        38.000          18.000
  24344790.768 6 127932756.042 6  99687866.15041  24344788.582 1  24344788.481 1
        41.000          18.000
 13  1 30  2  9 30.0000000  0 12G25G02G12G29G21G30G13G31G10G05G16G23
  22176867.886 7 116540250.125 7  90810602.16345  22176867.958 4  22176872.683 5
        47.000          35.000
  24038234.816 6 126321803.393 6  98432595.58241  24038233.834 1  24038235.347 1
        40.000          19.000
  25238557.431 4 132629522.010 4 103347695.19941  25238557.453 1  25238556.654 1
        33.000          12.000
  20269882.523 8 106518980.613 8  83001819.13947  20269882.560 7  20269884.807 7
        53.000          46.000
  23304037.619 6 122463550.767 6  95426157.53943  23304037.201 3  23304039.728 3
        43.000          25.000
  21754570.880 7 114321041.155 7  89081347.61545  21754570.291 5  21754572.863 5
        49.000          35.000
  24483945.073 5 128663997.592 5 100257681.12641  24483945.687 1  24483947.970 1
        38.000          17.000
  21606610.573 8 113543515.743 8  88475467.81946  21606610.276 5  21606611.526 6
        51.000          40.000
  24261106.650 5 127492979.383 5  99345188.42341  24261105.336 1  24261108.112 1
        38.000          15.000
  23710958.049 6 124601951.018 6  97092441.85643  23710958.414 3  23710960.411 3
        42.000          28.000
  24340112.260 5 127908144.023 5  99668699.79841  24340112.010 1  24340113.548 1
        39.000          17.000
  24347341.426 6 127946162.923 6  99698313.05241  24347340.515 1  24347338.851 1
        41.000          19.000
 13  1 30  2 10  0.0000000  0 12G25G02G12G29G21G30G13G31G10G05G16G23
  22194081.511 7 116630706.487 7  90881087.62545  22194081.223 4  22194085.861 5
        46.000          35.000
  24055424.320 5 126412138.135 5  98502986.26441  24055423.201 1  24055424.821 1
        39.000          19.000
  25259622.095 5 132740224.724 5 103433956.97841  25259622.983 1  25259625.739 1
        36.000          11.000
  20274474.528 8 106543112.651 8  83020623.32347  20274474.721 7  20274477.005 7
        53.000          46.000
  23286779.084 6 122372852.892 6  95355483.89243  23286777.697 3  23286780.334 3
        42.000          25.000
  21738718.152 7 114237734.984 7  89016433.71845  21738717.463 5  21738720.381 5
        48.000          35.000
  24476897.512 5 128626953.711 5 100228815.80441  24476897.138 1  24476897.460 1
        39.000          17.000
  21614675.031 8 113585898.277 8  88508493.16046  21614675.397 6  21614676.513 6
        50.000          40.000
  24269195.147 5 127535484.156 5  99378309.05241  24269194.490 1  24269195.383 1
        38.000          14.000
  23701233.530 6 124550848.881 6  97052622.00043  23701234.063 3  23701236.264 3
        43.000          27.000
  24319989.832 5 127802400.192 5  99586302.00941  24319988.283 1  24319989.424 1
        39.000          18.000
  24350000.915 6 127960142.269 6  99709206.04542  24349999.940 2  24350000.741 2
        41.000          20.000
 13  1 30  2 10 30.0000000  0 12G25G02G12G29G21G30G13G31G10G05G16G23
  22211350.543 7 116721458.207 7  90951803.23944  22211350.430 4  22211355.585 4
        47.000          34.000
  24072665.809 5 126502739.929 5  98573585.03141  24072664.616 2  24072667.691 1
        39.000          19.000
  25280699.441 5 132850976.754 5 103520257.26741  25280699.100 1  25280701.866 1
        38.000          17.000
  20279152.138 8 106567692.536 8  83039776.47947  20279152.181 7  20279154.376 7
        53.000          46.000
  23269562.006 6 122282380.633 6  95284986.03943  23269561.972 3  23269563.644 3
        43.000          25.000
  21722936.861 7 114154802.264 7  88951810.82145  21722936.026 5  21722938.681 5
        48.000          36.000
  24469959.634 5 128590494.347 5 100200405.91541  24469958.738 1  24469960.717 1
        39.000          17.000
  21622844.918 8 113628830.071 8  88541946.49546  21622845.019 5  21622846.207 6
        50.000          40.000
  24277392.088 5 127578566.467 5  99411879.64241  24277391.199 1  24277394.174 1
        39.000          15.000
  23691604.263 6 124500246.747 6  97013191.81043  23691604.865 3  23691606.915 3
        43.000          27.000
  24299886.932 5 127696762.513 5  99503986.92241  24299886.234 1  24299889.108 1
        39.000          18.000
  24352769.053 6 127974693.345 6  99720544.52942  24352767.912 2  24352768.767 2
        40.000          20.000
 13  1 30  2 11  0.0000000  0 12G25G02G12G29G21G30G13G31G10G05G16G23
  22228676.414 7 116812503.650 7  91022747.71244  22228675.629 4  22228680.975 4
        46.000          34.000
  24089957.372 6 126593606.254 6  98644389.97041  24089955.882 1  24089957.834 1
        41.000          19.000
  25301781.455 4 132961776.841 4 103606594.91941  25301782.353 1  25301787.796 1
        33.000          15.000
  20283914.413 8 106592719.585 8  83059278.07747  20283914.704 7  20283916.931 7
        53.000          46.000
  23252389.171 6 122192135.298 6  95214665.00343  23252388.614 3  23252391.014 3
        43.000          26.000
  21707226.236 7 114072245.401 7  88887480.80045  21707225.697 5  21707229.116 5
        48.000          35.000
  24463131.529 5 128554621.031 5 100172452.67741  24463131.357 1  24463133.906 1
        38.000          16.000
  21631118.931 8 113672309.652 8  88575826.67446  21631119.013 5  21631120.232 6
        51.000          40.000
  24285700.969 6 127622224.893 6  99445899.25941  24285700.185 1  24285702.476 1
        41.000          17.000
  23682072.031 6 124450146.871 6  96974152.93943  23682071.781 3  23682073.094 3
        44.000          27.000
  24279805.033 5 127591232.595 5  99421755.83341  24279804.406 1  24279806.668 1
        38.000          18.000
  24355646.652 6 127989815.048 6  99732327.68142  24355647.048 1  24355646.692 2
        40.000          20.000
 13  1 30  2 11 30.0000000  0 11G25G02G29G21G30G13G31G10G05G16G23
  22246057.048 7 116903841.380 7  91093919.94944  22246056.537 4  22246062.073 4
        46.000          34.000
  24107298.175 5 126684735.231 5  98715399.60441  24107298.275 1  24107299.342 1
        38.000          18.000
  20288761.971 8 106618192.704 8  83079127.26147  20288761.939 7  20288764.161 7
        52.000          46.000
  23235258.784 6 122102118.841 6  95144522.34743  23235258.971 3  23235261.978 3
        42.000          26.000
  21691588.575 7 113990066.587 7  88823445.36145  21691587.592 5  21691590.828 5
        48.000          36.000
  24456415.445 5 128519334.960 5 100144957.05441  24456416.454 1  24456418.415 1
        35.000          15.000
  21639496.170 8 113716335.419 8  88610132.45846  21639496.759 5  21639498.009 6
        50.000          40.000
  24294118.591 6 127666457.908 6  99480366.52641  24294117.737 1  24294119.436 1
        40.000          17.000
  23672633.236 6 124400551.493 6  96935507.22743  23672633.643 3  23672635.110 3
        44.000          27.000
  24259744.659 5 127485812.036 5  99339609.97141  24259744.498 1  24259746.153 1
        38.000          18.000
  24358634.488 6 128005506.695 6  99744554.96141  24358633.303 1  24358631.987 1
        40.000          19.000
 13  1 30  2 12  0.0000000  0 11G25G02G29G21G30G13G31G10G05G16G23
  22263493.655 7 116995469.874 7  91165318.74444  22263493.147 4  22263498.366 4
        47.000          34.000
  24124689.400 5 126776124.440 5  98786611.97241  24124688.389 1  24124688.493 1
        35.000          15.000
  20293694.120 8 106644111.019 8  83099323.35147  20293694.014 7  20293696.366 7
        52.000          46.000
  23218173.543 6 122012333.110 6  95074559.45543  23218173.174 3  23218175.501 3
        44.000          26.000
  21676022.671 7 113908268.359 7  88759706.48245  21676021.701 5  21676024.831 5
        49.000          36.000
  24449812.383 5 128484637.794 5 100117920.37041  24449814.154 1  24449815.935 1
        36.000          15.000
  21647977.999 8 113760906.185 8  88644862.91545  21647978.146 5  21647979.556 5
        50.000          39.000
  24302644.941 6 127711264.042 6  99515280.34641  24302644.769 1  24302646.860 1
        40.000          16.000
  23663293.335 6 124351462.475 6  96897256.03943  23663292.594 3  23663294.409 3
        44.000          28.000
  24239706.067 6 127380502.965 6  99257550.94341  24239704.288 1  24239705.712 1
        40.000          18.000
  24361728.759 6 128021767.626 6  99757225.78142  24361728.250 1  24361726.254 2
        41.000          20.000
 13  1 30  2 12 30.0000000  0 11G25G02G29G21G30G13G31G10G05G16G23
  22280985.369 7 117087387.610 7  91236942.93644  22280984.440 4  22280989.585 4
        46.000          33.000
  24142129.637 5 126867771.639 5  98858025.38841  24142126.098 1  24142127.807 1
        36.000          12.000
  20298710.704 8 106670474.131 8  83119866.03447  20298710.723 7  20298713.095 7
        52.000          46.000
  23201133.257 6 121922779.840 6  95004777.71843  23201132.201 3  23201133.793 3
        43.000          26.000
  21660529.706 7 113826853.116 7  88696266.03145  21660529.008 5  21660531.972 5
        49.000          36.000
  24443323.460 5 128450530.348 5 100091343.11841  24443322.765 1  24443323.783 1
        38.000          15.000
  21656563.745 8 113806020.399 8  88680016.83245  21656563.458 5  21656564.310 5
        51.000          39.000
  24311279.249 5 127756641.237 5  99550639.23641  24311279.040 1  24311281.010 1
        37.000          15.000
  23654047.362 6 124302882.197 6  96859401.30043  23654047.444 3  23654048.997 3
        42.000          27.000
  24219687.925 6 127275306.931 6  99175579.99841  24219686.813 1  24219688.072 1
        40.000          18.000
  24364930.520 6 128038596.784 6  99770339.41241  24364929.946 1  24364928.935 1
        40.000          19.000
 13  1 30  2 13  0.0000000  0 11G25G02G29G21G30G13G31G10G05G16G23
  22298531.568 7 117179592.969 7  91308791.25244  22298531.063 4  22298535.728 4
        47.000          34.000
  24159616.277 4 126959674.200 4  98929637.89941  24159618.111 1  24159615.467 1
        33.000          11.000
  20303812.123 8 106697280.511 8  83140754.12247  20303811.907 7  20303814.145 7
        53.000          45.000
  23184136.343 6 121833461.075 6  94935178.69743  23184135.135 3  23184136.966 3
        44.000          27.000
  21645110.243 7 113745823.004 7  88633125.69045  21645109.606 5  21645112.359 5
        49.000          36.000
  24436946.008 5 128417014.111 5 100065226.57341  24436945.929 1  24436946.845 1
        38.000          17.000
  21665251.397 8 113851676.422 8  88715592.94346  21665251.372 5  21665252.539 6
        51.000          40.000
  24320023.216 5 127802588.003 5  99586441.91241  24320023.476 1  24320025.534 1
        39.000          15.000
  23644900.315 6 124254812.836 6  96821944.68743  23644899.716 3  23644902.042 3
        44.000          27.000
  24199690.684 6 127170225.525 6  99093698.39841  24199689.560 1  24199691.508 1
        40.000          18.000
  24368240.747 6 128055993.128 6  99783894.99341  24368240.320 1  24368238.719 1
        41.000          18.000
 13  1 30  2 13 30.0000000  0 10G25G29G21G30G13G31G10G05G16G23
  22316131.996 7 117272084.561 7  91380862.59844  22316131.645 4  22316136.471 4
        47.000          34.000
  20308997.216 8 106724529.391 8  83161987.01847  20308997.352 7  20308999.429 7
        53.000          45.000
  23167184.179 6 121744378.637 6  94865763.82543  23167183.693 3  23167185.126 3
        42.000          27.000
  21629765.113 7 113665180.507 7  88570287.37345  21629764.073 5  21629766.635 5
        49.000          36.000
  24430680.802 5 128384090.158 5 100039571.53141  24430680.987 1  24430684.435 1
        37.000          16.000
  21674042.190 8 113897872.773 8  88751590.08546  21674042.230 5  21674043.574 6
        51.000          40.000
  24328874.574 5 127849102.986 5  99622687.38641  24328873.893 1  24328878.957 1
        39.000          15.000
  23635849.884 6 124207256.554 6  96784887.85043  23635850.050 3  23635852.452 3
        41.000          26.000
  24179717.205 5 127065260.999 5  99011907.85441  24179715.015 1  24179717.544 1
        39.000          18.000
  24371659.308 5 128073956.011 5  99797892.06741  24371659.196 1  24371657.950 1
        39.000          18.000
 13  1 30  2 14  0.0000000  0 11G25G02G29G21G30G13G31G10G05G16G23
  22333786.251 7 117364860.781 7  91453155.73844  22333786.334 4  22333790.929 4
        46.000          33.000
  24194737.534 4 127144212.155 4
        34.000
  20314266.725 8 106752219.872 8  83183564.01347  20314266.652 7  20314268.708 7
        51.000          46.000
  23150276.861 7 121655534.593 7  94796534.70843  23150277.312 3  23150278.977 3
        45.000          27.000
  21614493.129 8 113584928.246 8  88507753.14645  21614492.522 5  21614495.526 5
        50.000          36.000
  24424527.924 5 128351759.916 5 100014379.16041  24424529.894 1  24424527.920 1
        38.000          16.000
  21682935.167 8 113944608.046 8  88788007.16845  21682935.618 5  21682936.978 5
        51.000          39.000
  24337834.594 6 127896184.296 6  99659374.08541  24337832.372 1  24337836.541 1
        40.000          16.000
  23626897.975 6 124160215.178 6  96748232.25443  23626898.581 3  23626900.934 3
        44.000          27.000
  24159765.364 5 126960414.602 5  98930209.37641  24159764.883 1  24159766.660 1
        39.000          19.000
  24375185.224 5 128092484.760 5  99812330.03541  24375183.467 1  24375183.992 1
        39.000          19.000
 13  1 30  2 14 30.0000000  0 11G25G02G29G21G30G13G31G10G05G16G23
  22351494.868 7 117457920.091 7  91525669.46444  22351494.806 4  22351499.608 4
        46.000          33.000
  24212371.846 5 127236867.868 5
        37.000
  20319619.653 8 106780350.988 8  83205484.36047  20319619.758 7  20319621.855 7
        53.000          45.000
  23133417.066 6 121566930.652 6  94727492.70543  23133416.084 3  23133418.412 3
        43.000          27.000
  21599296.987 8 113505068.358 8  88445524.66345  21599295.820 5  21599298.358 5
        50.000          36.000
  24418489.494 5 128320024.650 5  99989650.37041  24418489.592 1  24418490.665 1
        38.000          16.000
  21691931.368 8 113991880.913 8  88824843.15345  21691931.376 5  21691932.605 5
        50.000          39.000
  24346900.423 5 127943830.190 5  99696500.76841  24346899.464 1  24346901.624 1
        38.000          15.000
  23618044.980 6 124113690.802 6  96711979.50243  23618045.285 3  23618047.121 3
        43.000          27.000
  24139836.055 5 126855688.094 5  98848604.31441  24139833.845 1  24139836.673 1
        39.000          18.000
  24378816.949 5 128111577.942 5  99827207.86241  24378817.075 1  24378817.875 1
        38.000          18.000
 13  1 30  2 15  0.0000000  0 11G25G02G29G21G30G13G31G10G05G16G23
  22369257.389 7 117551260.910 7  91598402.53844  22369257.105 4  22369262.228 4
        47.000          33.000
  24230048.610 5 127329769.965 5
        36.000
  20325056.470 8 106808921.399 8  83227747.02047  20325056.549 7  20325058.738 7
        52.000          46.000
  23116601.656 6 121478568.433 6  94658639.05843  23116600.996 3  23116603.161 3
        44.000          27.000
  21584175.062 7 113425603.302 7  88383603.83545  21584173.988 5  21584176.744 5
        49.000          36.000
  24412563.442 5 128288885.501 5  99965386.11541  24412563.257 1  24412565.174 1
        38.000          16.000
  21701028.908 8 114039689.569 8  88862096.63646  21701029.220 6  21701030.454 6
        51.000          40.000
  24356075.086 5 127992039.038 5  99734066.05141  24356074.443 1  24356075.299 1
        39.000          13.000
  23609291.070 6 124067685.359 6  96676131.11343  23609291.630 3  23609293.498 3
        43.000          27.000
  24119929.667 5 126751083.503 5  98767094.26041  24119929.003 1  24119931.218 1
        37.000          17.000
  24382558.209 5 128131234.723 5  99842524.79542  24382558.149 2  24382558.586 2
        39.000          20.000
 13  1 30  2 15 30.0000000  0 11G25G02G29G21G30G13G31G10G05G16G23
  22387072.857 7 117644881.788 7  91671353.86044  22387072.338 4  22387077.417 4
        46.000          33.000
  24247774.167 5 127422916.207 5
        37.000
  20330576.991 8 106837930.359 8  83250351.40647  20330576.871 7  20330578.925 7
        53.000          45.000
  23099833.607 6 121390450.190 6  94589975.50743  23099832.604 3  23099834.827 3
        44.000          27.000
  21569128.800 7 113346535.505 7  88321992.57045  21569127.926 5  21569130.568 5
        49.000          36.000
  24406752.129 5 128258343.796 5  99941587.42041  24406750.892 1  24406752.804 1
        38.000          15.000
  21710228.310 8 114088032.595 8  88899766.50945  21710228.447 5  21710229.910 5
        51.000          39.000
  24365355.155 6 128040809.158 6  99772068.72041  24365352.961 1  24365356.838 1
        40.000          13.000
  23600635.095 6 124022201.299 6  96640688.99943  23600635.656 3  23600637.195 3
        43.000          27.000
  24100048.472 5 126646602.496 5  98685680.50041  24100048.094 1  24100050.032 1
        39.000          18.000
  24386406.106 6 128151454.050 6  99858280.12241  24386406.226 1  24386405.107 1
        40.000          18.000
 13  1 30  2 16  0.0000000  0 10G25G29G21G30G13G31G10G05G16G23
  22404941.267 7 117738781.050 7  91744522.08644  22404940.661 4  22404945.792 4
        46.000          32.000
  20336180.231 8 106867376.838 8  83273296.70947  20336180.269 7  20336182.363 7
        52.000          45.000
  23083111.634 6 121302577.332 6  94521503.17543  23083111.090 3  23083113.497 3
        43.000          28.000
  21554158.367 7 113267867.181 7  88260692.57945  21554157.841 5  21554160.570 5
        49.000          37.000
  24401053.520 5 128228400.347 5  99918254.86241  24401053.566 1  24401054.844 1
        38.000          16.000
  21719529.343 8 114136908.085 8  88937851.29746  21719529.365 5  21719530.593 6
        50.000          40.000
  24374743.265 6 128090138.644 6  99810507.27141  24374741.101 1  24374744.586 1
        40.000          14.000
  23592079.645 6 123977240.341 6  96605654.49743  23592080.338 3  23592082.239 3
        44.000          27.000
  24080189.034 5 126542246.652 5  98604364.25441  24080188.547 1  24080191.617 1
        38.000          18.000
  24390361.512 6 128172234.904 6  99874472.99941  24390360.548 1  24390360.043 1
        40.000          19.000
 13  1 30  2 16 30.0000000  0 10G25G29G21G30G13G31G10G05G16G23
  22422862.360 7 117832957.235 7  91817906.11144  22422861.637 4  22422866.623 4
        45.000          32.000
  20341866.826 8 106897259.562 8  83296581.94747  20341866.730 7  20341868.878 7
        52.000          45.000
  23066437.173 6 121214952.074 6  94453223.77943  23066436.333 3  23066439.085 3
        44.000          28.000
  21539264.778 7 113189600.550 7  88199705.59345  21539264.241 5  21539266.926 5
        49.000          37.000
  24395469.996 5 128199057.092 5  99895390.00041  24395469.165 1  24395471.940 1
        38.000          16.000
  21728930.960 8 114186314.704 8  88976349.94945  21728931.180 5  21728932.338 5
        50.000          39.000
  24384235.515 5 128140025.595 5  99849380.26641  24384231.549 1  24384238.006 1
        37.000          13.000
  23583623.317 6 123932804.805 6  96571029.42843  23583624.159 3  23583624.963 3
        43.000          26.000
  24060356.627 5 126438018.005 5  98523147.14941  24060354.877 1  24060356.779 1
        39.000          18.000
  24394420.969 5 128193576.519 5  99891102.85441  24394419.556 1  24394420.784 1
        38.000          16.000
 13  1 30  2 17  0.0000000  0 11G25G02G29G21G30G13G31G10G05G16G23
  22440836.360 7 117927408.713 7  91891504.63944  22440835.397 4  22440840.474 4
        45.000          32.000
  24301226.043 4 127703810.236 4
        34.000
  20347636.019 8 106927578.145 8  83320206.82047  20347636.270 7  20347638.292 7
        51.000          45.000
  23049810.545 6 121127576.220 6  94385138.71343  23049809.861 3  23049811.765 3
        43.000          28.000
  21524448.569 8 113111738.519 8  88139033.87745  21524447.599 5  21524450.332 5
        50.000          37.000
  24390001.263 5 128170314.185 5  99872992.92441  24389999.012 1  24390001.150 1
        38.000          14.000
  21738434.470 7 114236250.954 7  89015261.29645  21738433.782 5  21738434.835 5
        49.000          39.000
  24393835.472 6 128190468.424 6  99888686.37841  24393835.163 1  24393837.579 1
        40.000          15.000
  23575268.290 6 123888896.337 6  96536815.05143  23575268.418 3  23575270.778 3
        44.000          28.000
  24040546.649 5 126333918.584 5  98442030.72341  24040546.310 1  24040547.458 1
        39.000          19.000
  24398587.406 5 128215477.581 5  99908168.60641  24398588.232 1  24398588.323 1
        38.000          17.000
